stop_seq,stop_id,stop_name,passenger_on,passenger_off,passenger_load,mo,day,yr,route,latitude,longitude,trip_id,dir,vehno,timestop,timedoorclose,timepullout,tripcode,tripstop,doordwell,waitdwell
34,4356, DE HARO ST&23RD ST NE-FS/PS,2,0,21,10,1,12,19,37.7547,122.401,940,1,8227,10:00:01,10:00:07,10:00:37,1019.1 _ 8227_4681 _  94, 1034_ DE HARO ST&23RD ST NE-FS/PS,00:00:06,00:00:30
84,5341, MANSELL ST&GOETTINGEN ST S-N,0,0,9,10,1,12,29,37.7206,122.404,853,0,8169,10:00:01,10:00:01,10:00:01,1029.0 _ 8169_4681 _  85, 1084_ MANSELL ST&GOETTINGEN ST S-N,00:00:00,00:00:00
50,4819, KEARNY ST&CALIFORNIA ST NE-F,0,3,14,10,1,12,908,37.7924,122.405,916,1,6231,10:00:02,10:00:14,10:00:56,1908.1 _ 6231_4681 _  91, 1050_ KEARNY ST&CALIFORNIA ST NE-F,00:00:12,00:00:42
15,4153, CORTLAND AVE&FOLSOM ST NW-FS,1,1,16,10,1,12,24,37.7391,122.414,949,1,5459,10:00:02,10:00:10,10:00:10,1024.1 _ 5459_4681 _  94, 1015_ CORTLAND AVE&FOLSOM ST NW-FS,00:00:08,00:00:00
4,3942, CHESTNUT ST&FILLMORE ST SW-N,0,0,10,10,1,12,30,37.8007,122.436,957,1,5524,10:00:03,10:00:09,10:00:09,1030.1 _ 5524_4681 _  95, 1004_ CHESTNUT ST&FILLMORE ST SW-N,00:00:06,00:00:00
20,5577, MISSION ST&APPLETON AVE E-FS,0,0,42,10,1,12,14,37.7387,122.424,939,1,7105,10:00:04,10:00:04,10:00:04,1014.1 _ 7105_4681 _  93, 1020_ MISSION ST&APPLETON AVE E-FS,00:00:00,00:00:00
24,6709, TURK ST&ARGUELLO BLVD SE-FS/,6,1,40,10,1,12,31,37.7772,122.458,943,1,5481,10:00:05,10:00:50,10:01:01,1031.1 _ 5481_4681 _  94, 1024_ TURK ST&ARGUELLO BLVD SE-FS/,00:00:45,00:00:11
67,4944, HAIGHT ST&BUENA VISTA WEST A,0,0,6,10,1,12,6,37.7705,122.443,941,1,5446,10:00:06,10:00:06,10:00:06,1006.1 _ 5446_4681 _  94, 1067_ HAIGHT ST&BUENA VISTA WEST A,00:00:00,00:00:00
10,5114, INGALLS ST&VAN DYKE AVE N-NS,0,0,7,10,1,12,54,37.7262,122.387,950,0,8165,10:00:07,10:00:07,10:00:07,1054.0 _ 8165_4681 _  95, 1010_ INGALLS ST&VAN DYKE AVE N-NS,00:00:00,00:00:00
11,5678, MARKET ST&KEARNY ST N-NS/SI,2,1,6,10,1,12,6,37.7884,122.403,954,0,5464,10:00:08,10:00:45,10:01:03,1006.0 _ 5464_4681 _  95, 1011_ MARKET ST&KEARNY ST N-NS/SI,00:00:37,00:00:18
40,3747, BRYANT ST&24TH ST SW-FS/BZ,0,0,8,10,1,12,27,37.7528,122.409,915,0,8175,10:00:09,10:00:09,10:00:09,1027.0 _ 8175_4681 _  91, 1040_ BRYANT ST&24TH ST SW-FS/BZ,00:00:00,00:00:00
8,6801, VAN NESS AVE&CHESTNUT ST NW-,2,0,12,10,1,12,47,37.8024,122.425,945,0,8205,10:00:11,10:00:29,10:00:43,1047.0 _ 8205_4681 _  94, 1008_ VAN NESS AVE&CHESTNUT ST NW-,00:00:18,00:00:14
85,5338, MANSELL ST&BRUSSELS ST S-NS/,0,0,9,10,1,12,29,37.7209,122.403,853,0,8169,10:00:12,10:00:12,10:00:12,1029.0 _ 8169_4681 _  85, 1085_ MANSELL ST&BRUSSELS ST S-NS/,00:00:00,00:00:00
6,6104, PRESIDIO BLVD&LETTERMAN DR S,3,0,11,10,1,12,43,37.7989,122.452,952,0,8220,10:00:12,10:00:21,10:00:37,1043.0 _ 8220_4681 _  95, 1006_ PRESIDIO BLVD&LETTERMAN DR S,00:00:09,00:00:16
4,4645, FITZGERALD AVE&HAWES ST W-NS,0,2,0,10,1,12,29,37.72,122.39,958,1,8179,10:00:12,10:00:19,10:00:49,1029.1 _ 8179_4681 _  95, 1004_ FITZGERALD AVE&HAWES ST W-NS,00:00:07,00:00:30
24,5571, MISSION ST&30TH ST E-FS/BB,13,6,76,10,1,12,514,37.7427,122.422,941,1,6203,10:00:13,10:00:38,10:00:52,1514.1 _ 6203_4681 _  94, 1024_ MISSION ST&30TH ST E-FS/BB,00:00:25,00:00:14
18,5459, NORTH POINT ST&HYDE ST SW-NS,0,0,2,10,1,12,30,37.8057,122.421,958,1,5506,10:00:13,10:00:13,10:00:13,1030.1 _ 5506_4681 _  95, 1018_ NORTH POINT ST&HYDE ST SW-NS,00:00:00,00:00:00
40,4881, GENEVA AVE&HOWTH ST E-NS/BZ,2,3,20,10,1,12,29,37.7221,122.45,928,1,8158,10:00:13,10:00:25,10:00:49,1029.1 _ 8158_4681 _  92, 1040_ GENEVA AVE&HOWTH ST E-NS/BZ,00:00:12,00:00:24
9,5966, PLYMOUTH AVE&LOBOS ST SE-NS,1,0,11,10,1,12,54,37.7149,122.456,955,1,8405,10:00:14,10:00:20,10:00:34,1054.1 _ 8405_4681 _  95, 1009_ PLYMOUTH AVE&LOBOS ST SE-NS,00:00:06,00:00:14
17,6831, VAN NESS AVE&TURK ST NE-FS/B,1,2,20,10,1,12,47,37.7822,122.421,953,1,8015,10:00:15,10:00:24,10:00:54,1047.1 _ 8015_4681 _  95, 1017_ VAN NESS AVE&TURK ST NE-FS/B,00:00:09,00:00:30
37,6393, SILVER AVE&ALEMANY BLVD E-NS,2,0,32,10,1,12,44,37.7297,122.433,937,1,8415,10:00:15,10:00:47,10:01:42,1044.1 _ 8415_4681 _  93, 1037_ SILVER AVE&ALEMANY BLVD E-NS,00:00:32,00:00:55
8,6601, SUTTER ST&MASON ST NW-FS/BZ,2,0,19,10,1,12,2,37.7889,122.41,951,0,8001,10:00:16,10:00:25,10:00:25,1002.0 _ 8001_4681 _  95, 1008_ SUTTER ST&MASON ST NW-FS/BZ,00:00:09,00:00:00
44,3545, 32ND AVE&BALBOA ST E-MB/ - EOL,0,2,0,10,1,12,38,37.7766,122.492,906,0,6211,10:00:19,10:00:27,10:00:47,1038.0 _ 6211_4681 _  90, 1044_ 32ND AVE&BALBOA ST E-MB/ - EOL,00:00:08,00:00:20
10,3545, 32ND AVE&BALBOA ST E-MB/BZ,0,0,0,10,1,12,38,37.7766,122.492,1009,1,6211,10:00:19,10:00:27,10:00:47,1038.1 _ 6211_4681 _ 100, 1010_ 32ND AVE&BALBOA ST E-MB/BZ,00:00:08,00:00:20
1,6819, VAN NESS &NORTH POINT W-MB,3,0,3,10,1,12,49,37.8046,122.425,957,0,7121,10:00:20,10:02:28,10:02:50,1049.0 _ 7121_4681 _  95, 1001_ VAN NESS &NORTH POINT W-MB,00:02:08,00:00:22
6,5689, MARKET ST&SANSOME ST W-FS/BZ,0,0,5,10,1,12,31,37.7892,122.401,954,0,5499,10:00:20,10:01:11,10:01:11,1031.0 _ 5499_4681 _  95, 1006_ MARKET ST&SANSOME ST W-FS/BZ,00:00:51,00:00:00
53,6819, VAN NESS &NORTH POINT W- - EOL,0,0,0,10,1,12,49,37.8052,122.425,839,1,7121,10:00:20,10:02:28,10:02:50,1049.1 _ 7121_4681 _  83, 1053_ VAN NESS &NORTH POINT W- - EOL,00:02:08,00:00:22
26,4235, FULTON ST&STANYAN ST SE-FS/B,2,1,15,10,1,12,5,37.7748,122.454,946,1,5493,10:00:21,10:00:38,10:00:38,1005.1 _ 5493_4681 _  94, 1026_ FULTON ST&STANYAN ST SE-FS/B,00:00:17,00:00:00
55,4912, GRAFTON AVE&JULES AVE SW-NS/,1,0,61,10,1,12,29,37.72,122.461,911,0,8403,10:00:21,10:00:21,10:00:21,1029.0 _ 8403_4681 _  91, 1055_ GRAFTON AVE&JULES AVE SW-NS/,00:00:00,00:00:00
53,6697, TOWNSEND ST&5TH ST S-NS/SB,0,0,12,10,1,12,10,37.7753,122.397,944,1,8235,10:00:21,10:00:21,10:00:21,1010.1 _ 8235_4681 _  94, 1053_ TOWNSEND ST&5TH ST S-NS/SB,00:00:00,00:00:00
29,5018, HERMANN ST&FILLMORE ST SE-FS,0,0,23,10,1,12,22,37.7703,122.429,933,0,5453,10:00:22,10:00:22,10:00:22,1022.0 _ 5453_4681 _  93, 1029_ HERMANN ST&FILLMORE ST SE-FS,00:00:00,00:00:00
11,4288, GEARY BLVD&ARGUELLO BLVD SE-,3,1,21,10,1,12,538,37.7812,122.459,936,1,6220,10:00:22,10:00:35,10:01:03,1538.1 _ 6220_4681 _  93, 1011_ GEARY BLVD&ARGUELLO BLVD SE-,00:00:13,00:00:28
39,3937, CHESTNUT ST&BRODERICK ST NE-,0,0,5,10,1,12,30,37.8004,122.444,931,0,5482,10:00:23,10:00:23,10:00:23,1030.0 _ 5482_4681 _  93, 1039_ CHESTNUT ST&BRODERICK ST NE-,00:00:00,00:00:00
13,6235, ROOSEVELT WAY&17TH ST SW-FS/,0,0,2,10,1,12,37,37.7618,122.445,953,0,8506,10:00:23,10:00:23,10:00:23,1037.0 _ 8506_4681 _  95, 1013_ ROOSEVELT WAY&17TH ST SW-FS/,00:00:00,00:00:00
73,6907, 117 WARREN DR N-MB/SB,2,0,7,10,1,12,36,37.7536,122.458,925,1,8504,10:00:23,10:00:47,10:00:47,1036.1 _ 8504_4681 _  92, 1073_ 117 WARREN DR N-MB/SB,00:00:24,00:00:00
51,4820, KEARNY ST&CLAY ST NE-FS/BZ,1,32,41,10,1,12,908,37.7946,122.405,908,1,6213,10:00:30,10:01:00,10:01:00,1908.1 _ 6213_4681 _  90, 1051_ KEARNY ST&CLAY ST NE-FS/BZ,00:00:30,00:00:00
61,4771, ACADEMY OF SCIENCES S-NS/BZ,2,1,33,10,1,12,44,37.7707,122.466,912,1,8171,10:00:30,10:00:44,10:00:59,1044.1 _ 8171_4681 _  91, 1061_ ACADEMY OF SCIENCES S-NS/BZ,00:00:14,00:00:15
59,4808, GENEVA AVE&CASTELO ST E-NS/P,0,0,14,10,1,12,9,37.7078,122.418,906,0,8414,10:00:32,10:00:32,10:00:32,1009.0 _ 8414_4681 _  90, 1059_ GENEVA AVE&CASTELO ST E-NS/P,00:00:00,00:00:00
16,4151, CORTLAND AVE&ELLSWORTH ST NE,0,0,16,10,1,12,24,37.7389,122.415,949,1,5459,10:00:33,10:00:55,10:00:55,1024.1 _ 5459_4681 _  94, 1016_ CORTLAND AVE&ELLSWORTH ST NE,00:00:22,00:00:00
14,6584, SUNNYDALE AVE&TALBERT ST W-N,0,0,20,10,1,12,9,37.7093,122.407,1000,1,8159,10:00:33,10:00:33,10:00:33,1009.1 _ 8159_4681 _ 100, 1014_ SUNNYDALE AVE&TALBERT ST W-N,00:00:00,00:00:00
12,5620, MISSION ST&SILVER AVE S-NS/B,3,6,15,10,1,12,49,37.7286,122.431,948,1,7120,10:00:34,10:01:07,10:01:28,1049.1 _ 7120_4681 _  94, 1012_ MISSION ST&SILVER AVE S-NS/B,00:00:33,00:00:21
4,5684, MARKET ST&MONTGOMERY ST W-FS,0,1,1,10,1,12,5,37.7889,122.402,953,0,5525,10:00:36,10:00:48,10:01:45,1005.0 _ 5525_4681 _  95, 1004_ MARKET ST&MONTGOMERY ST W-FS,00:00:12,00:00:57
11,6839, VAN DYKE AVE&JENNINGS ST E-N,0,0,7,10,1,12,54,37.7269,122.388,950,0,8165,10:00:37,10:00:37,10:00:37,1054.0 _ 8165_4681 _  95, 1011_ VAN DYKE AVE&JENNINGS ST E-N,00:00:00,00:00:00
86,5349, MANSELL ST&SAN BRUNO AVE S-N,0,1,8,10,1,12,29,37.7214,122.401,853,0,8169,10:00:38,10:00:45,10:01:26,1029.0 _ 8169_4681 _  85, 1086_ MANSELL ST&SAN BRUNO AVE S-N,00:00:07,00:00:41
19,3284, 16TH ST&DOLORES ST NE-NS/PS,1,3,39,10,1,12,22,37.7647,122.426,942,1,5471,10:00:39,10:01:10,10:01:24,1022.1 _ 5471_4681 _  94, 1019_ 16TH ST&DOLORES ST NE-NS/PS,00:00:31,00:00:14
6,5468, NORTH POINT ST&POLK ST NW-FS,0,0,13,10,1,12,47,37.8053,122.423,954,0,8221,10:00:39,10:00:39,10:00:39,1047.0 _ 8221_4681 _  95, 1006_ NORTH POINT ST&POLK ST NW-FS,00:00:00,00:00:00
16,4227, FULTON ST&GREAT HWY NE-NS/SB,0,0,7,10,1,12,18,37.7714,122.511,949,0,8406,10:00:40,10:00:40,10:00:40,1018.0 _ 8406_4681 _  94, 1016_ FULTON ST&GREAT HWY NE-NS/SB,00:00:00,00:00:00
15,5610, MISSION ST&PERSIA AVE E-FS/B,14,6,69,10,1,12,514,37.7233,122.436,950,1,6208,10:00:41,10:01:43,10:02:13,1514.1 _ 6208_4681 _  95, 1015_ MISSION ST&PERSIA AVE E-FS/B,00:01:02,00:00:30
5,3959, CHESTNUT ST&WEBSTER ST SW-NS,1,1,10,10,1,12,30,37.8009,122.435,957,1,5524,10:00:41,10:00:50,10:00:50,1030.1 _ 5524_4681 _  95, 1005_ CHESTNUT ST&WEBSTER ST SW-NS,00:00:09,00:00:00
56,5647, MARKET ST&6TH ST S-NS/SI,1,8,22,10,1,12,9,37.782,122.411,859,1,8401,10:00:42,10:01:05,10:01:19,1009.1 _ 8401_4681 _  85, 1056_ MARKET ST&6TH ST S-NS/SI,00:00:23,00:00:14
41,3748, BRYANT ST&25TH ST NW-NS/BZ,0,0,8,10,1,12,27,37.7513,122.409,915,0,8175,10:00:42,10:00:42,10:00:42,1027.0 _ 8175_4681 _  91, 1041_ BRYANT ST&25TH ST NW-NS/BZ,00:00:00,00:00:00
8,4973, HARRISON ST&9TH ST W-FS/BZ,2,1,10,10,1,12,47,37.7724,122.41,943,1,8233,10:00:43,10:00:58,10:01:55,1047.1 _ 8233_4681 _  94, 1008_ HARRISON ST&9TH ST W-FS/BZ,00:00:15,00:00:57
3,6038, POTRERO AVE&24TH ST NE-FS/BZ,2,0,9,10,1,12,33,37.7533,122.406,1005,1,5467,10:00:44,10:00:57,10:01:14,1033.1 _ 5467_4681 _ 100, 1003_ POTRERO AVE&24TH ST NE-FS/BZ,00:00:13,00:00:17
30,4005, CHURCH ST&DUBOCE AVE NW-NS/B,1,0,24,10,1,12,22,37.7695,122.429,933,0,5453,10:00:44,10:00:55,10:01:25,1022.0 _ 5453_4681 _  93, 1030_ CHURCH ST&DUBOCE AVE NW-NS/B,00:00:11,00:00:30
40,3075, BRODERICK ST&FRANCISCO ST SE,0,1,4,10,1,12,30,37.8009,122.445,931,0,5482,10:00:45,10:00:53,10:00:53,1030.0 _ 5482_4681 _  93, 1040_ BRODERICK ST&FRANCISCO ST SE,00:00:08,00:00:00
17,7315, MASON ST&OFARRELL ST SW-FS/S,0,1,19,10,1,12,27,37.7861,122.41,945,0,8157,10:00:46,10:00:54,10:00:54,1027.0 _ 8157_4681 _  94, 1017_ MASON ST&OFARRELL ST SW-FS/S,00:00:08,00:00:00
68,4943, HAIGHT ST&BUENA VISTA EAST A,0,0,6,10,1,12,6,37.7708,122.441,941,1,5446,10:00:47,10:00:47,10:00:47,1006.1 _ 5446_4681 _  94, 1068_ HAIGHT ST&BUENA VISTA EAST A,00:00:00,00:00:00
29,5541, MISSION ST&8TH ST E-FS/BZ,3,9,64,10,1,12,514,37.7777,122.413,914,1,6218,10:00:48,10:00:59,10:01:13,1514.1 _ 6218_4681 _  91, 1029_ MISSION ST&8TH ST E-FS/BZ,00:00:11,00:00:14
56,4908, GRAFTON AVE&CAPITOL AVE SW-N,0,0,61,10,1,12,29,37.72,122.459,911,0,8403,10:00:48,10:00:48,10:00:48,1029.0 _ 8403_4681 _  91, 1056_ GRAFTON AVE&CAPITOL AVE SW-N,00:00:00,00:00:00
60,4899, GENEVA AVE&SANTOS ST E-NS/PS,1,10,5,10,1,12,9,37.7083,122.42,906,0,8414,10:00:48,10:01:08,10:01:08,1009.0 _ 8414_4681 _  90, 1060_ GENEVA AVE&SANTOS ST E-NS/PS,00:00:20,00:00:00
30,4759, GEARY BLVD&PRESIDIO AVE SW-N,6,1,56,10,1,12,38,37.7824,122.446,937,1,6201,10:00:49,10:01:20,10:01:37,1038.1 _ 6201_4681 _  93, 1030_ GEARY BLVD&PRESIDIO AVE SW-N,00:00:31,00:00:17
23,4229, FULTON ST&MASONIC AVE NE-NS/,4,2,16,10,1,12,5,37.7759,122.446,916,0,5508,10:00:49,10:01:22,10:01:54,1005.0 _ 5508_4681 _  91, 1023_ FULTON ST&MASONIC AVE NE-NS/,00:00:33,00:00:32
10,5971, PLYMOUTH AVE&MONTANA ST SE-N,0,0,11,10,1,12,54,37.7165,122.456,955,1,8405,10:00:50,10:00:50,10:00:50,1054.1 _ 8405_4681 _  95, 1010_ PLYMOUTH AVE&MONTANA ST SE-N,00:00:00,00:00:00
3,3144, 3RD ST&PERRY,0,0,5,10,1,12,30,37.7829,122.398,956,0,5505,10:00:52,10:00:52,10:00:52,1030.0 _ 5505_4681 _  95, 1003_ 3RD ST&PERRY,00:00:00,00:00:00
14,6239, ROOSEVELT WAY&LOWER TER SE-N,0,0,2,10,1,12,37,37.7632,122.444,953,0,8506,10:00:53,10:00:53,10:00:53,1037.0 _ 8506_4681 _  95, 1014_ ROOSEVELT WAY&LOWER TER SE-N,00:00:00,00:00:00
40,5542, MISSION ST&9TH ST E-FS/BZ,3,5,14,10,1,12,14,37.7765,122.414,903,1,7113,10:00:54,10:01:05,10:01:35,1014.1 _ 7113_4681 _  90, 1040_ MISSION ST&9TH ST E-FS/BZ,00:00:11,00:00:30
19,5717, MASONIC AVE&OAK ST SW-FS/BZ,1,0,22,10,1,12,43,37.7719,122.446,930,0,8234,10:00:54,10:00:58,10:01:16,1043.0 _ 8234_4681 _  93, 1019_ MASONIC AVE&OAK ST SW-FS/BZ,00:00:04,00:00:18
37,6811, VAN NESS AVE&GROVE ST NE-FS/,0,3,28,10,1,12,49,37.7787,122.42,903,1,7110,10:00:57,10:01:11,10:01:11,1049.1 _ 7110_4681 _  90, 1037_ VAN NESS AVE&GROVE ST NE-FS/,00:00:14,00:00:00
17,4298, GEARY BLVD&GOUGH ST NW-FS/BZ,2,2,29,10,1,12,38,37.7854,122.425,937,0,6216,10:00:57,10:01:07,10:01:22,1038.0 _ 6216_4681 _  93, 1017_ GEARY BLVD&GOUGH ST NW-FS/BZ,00:00:10,00:00:15
5,5002, HAYES ST&MASONIC AVE SE-FS/B,5,0,13,10,1,12,21,37.7739,122.446,957,1,5513,10:00:58,10:01:12,10:01:12,1021.1 _ 5513_4681 _  95, 1005_ HAYES ST&MASONIC AVE SE-FS/B,00:00:14,00:00:00
43,3144, 3RD ST&PERRY,1,4,83,10,1,12,708,37.7821,122.397,907,1,6221,10:00:59,10:01:15,10:01:45,1708.1 _ 6221_4681 _  90, 1043_ 3RD ST&PERRY,00:00:16,00:00:30
59,6756, UNION ST&GOUGH ST NE-NS/BZ,4,4,8,10,1,12,45,37.7981,122.427,929,0,5523,10:00:59,10:01:17,10:01:34,1045.0 _ 5523_4681 _  92, 1059_ UNION ST&GOUGH ST NE-NS/BZ,00:00:18,00:00:17
11,5979, PLYMOUTH AVE&THRIFT ST NE-FS,0,0,11,10,1,12,54,37.7173,122.456,955,1,8405,10:01:01,10:01:01,10:01:01,1054.1 _ 8405_4681 _  95, 1011_ PLYMOUTH AVE&THRIFT ST NE-FS,00:00:00,00:00:00
34,6757, UNION ST&GOUGH ST SW-NS/BZ,1,0,14,10,1,12,45,37.7981,122.427,953,1,5515,10:01:02,10:01:14,10:01:44,1045.1 _ 5515_4681 _  95, 1034_ UNION ST&GOUGH ST SW-NS/BZ,00:00:12,00:00:30
38,4473, EDDY ST&BUCHANAN ST SW-NS/BZ,1,0,26,10,1,12,31,37.7818,122.429,929,1,5517,10:01:02,10:01:11,10:01:24,1031.1 _ 5517_4681 _  92, 1038_ EDDY ST&BUCHANAN ST SW-NS/BZ,00:00:09,00:00:13
42,3750, BRYANT ST&26TH ST NW-NS/BZ,0,1,7,10,1,12,27,37.7497,122.409,915,0,8175,10:01:03,10:01:11,10:01:11,1027.0 _ 8175_4681 _  91, 1042_ BRYANT ST&26TH ST NW-NS/BZ,00:00:08,00:00:00
36,3034, BALBOA ST&6TH AVE NW-FS/BZ,2,0,24,10,1,12,31,37.7773,122.464,918,0,5500,10:01:04,10:01:37,10:01:37,1031.0 _ 5500_4681 _  91, 1036_ BALBOA ST&6TH AVE NW-FS/BZ,00:00:33,00:00:00
58,6060, POWELL ST&LOMBARD ST SE-NS/P,0,1,5,10,1,12,808,37.8028,122.411,850,1,6204,10:01:05,10:01:11,10:01:34,1808.1 _ 6204_4681 _  85, 1058_ POWELL ST&LOMBARD ST SE-NS/P,00:00:06,00:00:23
54,6695, TOWNSEND ST&4TH ST S-NS/BZ,0,0,12,10,1,12,10,37.777,122.395,944,1,8235,10:01:08,10:01:18,10:01:42,1010.1 _ 8235_4681 _  94, 1054_ TOWNSEND ST&4TH ST S-NS/BZ,00:00:10,00:00:24
18,6804, VAN NESS AVE&EDDY ST NE-FS/B,4,4,20,10,1,12,47,37.7831,122.421,953,1,8015,10:01:08,10:01:33,10:02:19,1047.1 _ 8015_4681 _  95, 1018_ VAN NESS AVE&EDDY ST NE-FS/B,00:00:25,00:00:46
41,3072, BRODERICK ST&BAY ST SE-NS/SB,0,0,4,10,1,12,30,37.8017,122.445,931,0,5482,10:01:08,10:01:08,10:01:08,1030.0 _ 5482_4681 _  93, 1041_ BRODERICK ST&BAY ST SE-NS/SB,00:00:00,00:00:00
22,5638, MARKET ST&1ST ST S-NS/BZ,1,8,9,10,1,12,538,37.7903,122.401,919,1,6210,10:01:08,10:01:29,10:01:49,1538.1 _ 6210_4681 _  91, 1022_ MARKET ST&1ST ST S-NS/BZ,00:00:21,00:00:20
7,6819, VAN NESS &NORTH POINT W-MB,0,0,13,10,1,12,47,37.805,122.425,954,0,8221,10:01:09,10:01:09,10:01:09,1047.0 _ 8221_4681 _  95, 1007_ VAN NESS &NORTH POINT W-MB,00:00:00,00:00:00
72,5852, PACIFIC AVE&POWELL ST NE-NS/,5,5,33,10,1,12,10,37.7966,122.41,903,1,8203,10:01:09,10:01:35,10:02:05,1010.1 _ 8203_4681 _  90, 1072_ PACIFIC AVE&POWELL ST NE-NS/,00:00:26,00:00:30
7,6107, PRESIDIO BLVD&SUMNER AVE N-N,1,0,12,10,1,12,43,37.7968,122.452,952,0,8220,10:01:09,10:01:14,10:01:31,1043.0 _ 8220_4681 _  95, 1007_ PRESIDIO BLVD&SUMNER AVE N-N,00:00:05,00:00:17
8,6054, POWELL ST&FILBERT ST NW-NS/P,0,0,18,10,1,12,708,37.8012,122.411,955,0,6209,10:01:10,10:01:10,10:01:10,1708.0 _ 6209_4681 _  95, 1008_ POWELL ST&FILBERT ST NW-NS/P,00:00:00,00:00:00
12,6841, VAN DYKE AVE&KEITH ST E-NS,2,0,9,10,1,12,54,37.7281,122.39,950,0,8165,10:01:10,10:01:18,10:01:31,1054.0 _ 8165_4681 _  95, 1012_ VAN DYKE AVE&KEITH ST E-NS,00:00:08,00:00:13
9,6612, SUTTER ST&TAYLOR ST NW-FS/BZ,0,0,19,10,1,12,2,37.7884,122.412,951,0,8001,10:01:13,10:01:13,10:01:13,1002.0 _ 8001_4681 _  95, 1009_ SUTTER ST&TAYLOR ST NW-FS/BZ,00:00:00,00:00:00
15,6236, ROOSEVELT WAY&CLIFFORD TER E,0,0,2,10,1,12,37,37.7638,122.443,953,0,8506,10:01:13,10:01:13,10:01:13,1037.0 _ 8506_4681 _  95, 1015_ ROOSEVELT WAY&CLIFFORD TER E,00:00:00,00:00:00
21,5583, MISSION ST&CORTLAND AVE E-FS,1,3,40,10,1,12,14,37.7412,122.423,939,1,7105,10:01:13,10:01:27,10:01:27,1014.1 _ 7105_4681 _  93, 1021_ MISSION ST&CORTLAND AVE E-FS,00:00:14,00:00:00
9,6810, VAN NESS AVE&GREENWICH ST SW,1,0,13,10,1,12,47,37.8001,122.424,945,0,8205,10:01:13,10:01:29,10:01:29,1047.0 _ 8205_4681 _  94, 1009_ VAN NESS AVE&GREENWICH ST SW,00:00:16,00:00:00
57,4910, GRAFTON AVE&GRANADA AVE SW-N,0,0,61,10,1,12,29,37.7201,122.457,911,0,8403,10:01:14,10:01:14,10:01:14,1029.0 _ 8403_4681 _  91, 1057_ GRAFTON AVE&GRANADA AVE SW-N,00:00:00,00:00:00
37,6355, SAN BRUNO AVE&BACON ST NE-FS,7,0,77,10,1,12,708,37.7279,122.404,925,1,6230,10:01:15,10:01:56,10:02:14,1708.1 _ 6230_4681 _  92, 1037_ SAN BRUNO AVE&BACON ST NE-FS,00:00:41,00:00:18
41,6024, POST ST&VAN NESS AVE SE-FS/B,4,2,37,10,1,12,2,37.7867,122.422,930,1,8005,10:01:18,10:01:41,10:01:41,1002.1 _ 8005_4681 _  93, 1041_ POST ST&VAN NESS AVE SE-FS/B,00:00:23,00:00:00
74,6911, WARREN DR&CHRISTOPHER DR E-N,0,0,7,10,1,12,36,37.7537,122.46,925,1,8504,10:01:20,10:01:24,10:01:24,1036.1 _ 8504_4681 _  92, 1074_ WARREN DR&CHRISTOPHER DR E-N,00:00:04,00:00:00
12,5963, PLYMOUTH AVE&LAKEVIEW AVE SE,1,0,12,10,1,12,54,37.7186,122.456,955,1,8405,10:01:20,10:01:20,10:01:20,1054.1 _ 8405_4681 _  95, 1012_ PLYMOUTH AVE&LAKEVIEW AVE SE,00:00:00,00:00:00
5,4784, GILMAN AVE&GRIFFITH ST W-NS/,0,0,0,10,1,12,29,37.7183,122.388,958,1,8179,10:01:20,10:01:20,10:01:20,1029.1 _ 8179_4681 _  95, 1005_ GILMAN AVE&GRIFFITH ST W-NS/,00:00:00,00:00:00
58,4915, GRAFTON AVE&PLYMOUTH AVE SW-,0,0,61,10,1,12,29,37.7201,122.456,911,0,8403,10:01:21,10:01:21,10:01:21,1029.0 _ 8403_4681 _  91, 1058_ GRAFTON AVE&PLYMOUTH AVE SW-,00:00:00,00:00:00
17,4142, CORTLAND AVE&ANDOVER ST NE-N,4,1,19,10,1,12,24,37.7391,122.416,949,1,5459,10:01:21,10:01:39,10:01:39,1024.1 _ 5459_4681 _  94, 1017_ CORTLAND AVE&ANDOVER ST NE-N,00:00:18,00:00:00
4,6119, SF GENERAL HOSPITAL E-MB/BB,2,0,11,10,1,12,33,37.7546,122.406,1005,1,5467,10:01:22,10:01:33,10:01:47,1033.1 _ 5467_4681 _ 100, 1004_ SF GENERAL HOSPITAL E-MB/BB,00:00:11,00:00:14
5,5674, MARKET ST&GRANT AVE W-FS/BZ,0,0,3,10,1,12,5,37.7861,122.405,944,0,5491,10:01:23,10:01:28,10:01:49,1005.0 _ 5491_4681 _  94, 1005_ MARKET ST&GRANT AVE W-FS/BZ,00:00:05,00:00:21
35,4355, DE HARO ST&22ND ST NE-FS/PS,0,0,21,10,1,12,19,37.7577,122.401,940,1,8227,10:01:23,10:01:23,10:01:23,1019.1 _ 8227_4681 _  94, 1035_ DE HARO ST&22ND ST NE-FS/PS,00:00:00,00:00:00
42,3077, BRODERICK ST&NORTH POINT ST,0,0,4,10,1,12,30,37.8025,122.445,931,0,5482,10:01:23,10:01:23,10:01:23,1030.0 _ 5482_4681 _  93, 1042_ BRODERICK ST&NORTH POINT ST,00:00:00,00:00:00
6,3939, CHESTNUT ST&BUCHANAN ST SW-N,0,0,10,10,1,12,30,37.8012,122.433,957,1,5524,10:01:24,10:01:24,10:01:24,1030.1 _ 5524_4681 _  95, 1006_ CHESTNUT ST&BUCHANAN ST SW-N,00:00:00,00:00:00
27,4234, FULTON ST&SHRADER ST SE-FS/B,2,5,12,10,1,12,5,37.7752,122.453,946,1,5493,10:01:24,10:02:01,10:02:15,1005.1 _ 5493_4681 _  94, 1027_ FULTON ST&SHRADER ST SE-FS/B,00:00:37,00:00:14
25,6732, TURK ST&STANYAN ST SE-FS/BZ,0,0,40,10,1,12,31,37.7776,122.455,943,1,5481,10:01:25,10:01:25,10:01:25,1031.1 _ 5481_4681 _  94, 1025_ TURK ST&STANYAN ST SE-FS/BZ,00:00:00,00:00:00
14,6526, STOCKTON ST&WASHINGTON ST W-,199,4,199,10,1,12,708,37.7954,122.408,946,0,6206,10:01:25,10:01:44,10:02:14,1708.0 _ 6206_4681 _  94, 1014_ STOCKTON ST&WASHINGTON ST W-,00:00:19,00:00:30
20,5712, MASONIC AVE&HAIGHT ST NW-NS/,4,3,23,10,1,12,43,37.7704,122.445,930,0,8234,10:01:28,10:02:46,10:02:58,1043.0 _ 8234_4681 _  93, 1020_ MASONIC AVE&HAIGHT ST NW-NS/,00:01:18,00:00:12
2,4553, EVANS AVE&MENDELL ST S-FS/BZ,0,0,0,10,1,12,44,37.7407,122.384,1001,1,8413,10:01:28,10:01:28,10:01:28,1044.1 _ 8413_4681 _ 100, 1002_ EVANS AVE&MENDELL ST S-FS/BZ,00:00:00,00:00:00
52,4822, KEARNY ST&JACKSON ST SE-NS/B,2,16,27,10,1,12,908,37.7961,122.405,908,1,6213,10:01:28,10:01:46,10:02:30,1908.1 _ 6213_4681 _  90, 1052_ KEARNY ST&JACKSON ST SE-NS/B,00:00:18,00:00:44
51,4820, KEARNY ST&CLAY ST NE-FS/BZ,0,3,11,10,1,12,908,37.7946,122.405,916,1,6231,10:01:30,10:01:42,10:01:42,1908.1 _ 6231_4681 _  91, 1051_ KEARNY ST&CLAY ST NE-FS/BZ,00:00:12,00:00:00
6,4986, HAYES ST&CENTRAL AVE SW-NS/B,2,0,15,10,1,12,21,37.7741,122.445,957,1,5513,10:01:31,10:01:37,10:01:37,1021.1 _ 5513_4681 _  95, 1006_ HAYES ST&CENTRAL AVE SW-NS/B,00:00:06,00:00:00
20,4312, CASTRO ST&16TH ST NW-NS/SB,0,0,19,10,1,12,24,37.764,122.435,940,0,5461,10:01:31,10:01:31,10:01:31,1024.0 _ 5461_4681 _  94, 1020_ CASTRO ST&16TH ST NW-NS/SB,00:00:00,00:00:00
13,5958, PLYMOUTH AVE&GRAFTON AVE SE-,3,1,14,10,1,12,54,37.72,122.456,955,1,8405,10:01:33,10:01:43,10:01:43,1054.1 _ 8405_4681 _  95, 1013_ PLYMOUTH AVE&GRAFTON AVE SE-,00:00:10,00:00:00
10,6595, SUTTER ST&JONES ST NW-FS/BZ,2,1,20,10,1,12,2,37.7886,122.414,951,0,8001,10:01:33,10:01:55,10:01:55,1002.0 _ 8001_4681 _  95, 1010_ SUTTER ST&JONES ST NW-FS/BZ,00:00:22,00:00:00
12,5694, MARKET ST&STOCKTON ST N-NS/S,2,0,8,10,1,12,6,37.7858,122.406,954,0,5464,10:01:33,10:01:50,10:02:03,1006.0 _ 5464_4681 _  95, 1012_ MARKET ST&STOCKTON ST N-NS/S,00:00:17,00:00:13
15,7297, SUNNYDALE AVE&BAYSHORE BLVD,0,0,20,10,1,12,9,37.709,122.406,1000,1,8159,10:01:34,10:01:34,10:01:34,1009.1 _ 8159_4681 _ 100, 1015_ SUNNYDALE AVE&BAYSHORE BLVD,00:00:00,00:00:00
9,4120, COLUMBUS AVE&UNION ST NW-NS/,3,0,21,10,1,12,708,37.8004,122.411,955,0,6209,10:01:36,10:01:47,10:02:11,1708.0 _ 6209_4681 _  95, 1009_ COLUMBUS AVE&UNION ST NW-NS/,00:00:11,00:00:24
43,3074, BRODERICK ST&BEACH ST SE-NS/,0,1,3,10,1,12,30,37.8034,122.445,931,0,5482,10:01:37,10:01:45,10:01:45,1030.0 _ 5482_4681 _  93, 1043_ BRODERICK ST&BEACH ST SE-NS/,00:00:08,00:00:00
36,4358, DE HARO ST&SOUTHERN HEIGHTS,0,0,21,10,1,12,19,37.7584,122.401,940,1,8227,10:01:37,10:01:37,10:01:37,1019.1 _ 8227_4681 _  94, 1036_ DE HARO ST&SOUTHERN HEIGHTS,00:00:00,00:00:00
6,5955, GILMAN AVE&GIANTS DR W-NS/SB,0,1,0,10,1,12,29,37.7176,122.387,958,1,8179,10:01:37,10:01:51,10:02:07,1029.1 _ 8179_4681 _  95, 1006_ GILMAN AVE&GIANTS DR W-NS/SB,00:00:14,00:00:16
47,4821, KEARNY ST&GEARY BLVD NE-FS/B,13,4,57,10,1,12,708,37.7884,122.404,858,1,6214,10:01:38,10:01:57,10:02:27,1708.1 _ 6214_4681 _  85, 1047_ KEARNY ST&GEARY BLVD NE-FS/B,00:00:19,00:00:30
17,4780, GREAT HWY&OCEAN BEACH W-MB/S,0,0,7,10,1,12,18,37.767,122.51,949,0,8406,10:01:38,10:01:38,10:01:38,1018.0 _ 8406_4681 _  94, 1017_ GREAT HWY&OCEAN BEACH W-MB/S,00:00:00,00:00:00
61,6345, SANTOS ST&VELASCO AVE S-NS/P,0,0,5,10,1,12,9,37.7097,122.419,906,0,8414,10:01:38,10:01:38,10:01:38,1009.0 _ 8414_4681 _  90, 1061_ SANTOS ST&VELASCO AVE S-NS/P,00:00:00,00:00:00
43,3929, CESAR CHAVEZ ST&BRYANT ST NW,0,1,6,10,1,12,27,37.7485,122.409,915,0,8175,10:01:39,10:02:35,10:02:35,1027.0 _ 8175_4681 _  91, 1043_ CESAR CHAVEZ ST&BRYANT ST NW,00:00:56,00:00:00
31,4008, CHURCH ST&14TH ST NW-NS/SB,1,5,20,10,1,12,22,37.7679,122.429,933,0,5453,10:01:40,10:02:00,10:02:25,1022.0 _ 5453_4681 _  93, 1031_ CHURCH ST&14TH ST NW-NS/SB,00:00:20,00:00:25
38,6815, VAN NESS AVE&MCALLISTER ST S,0,1,27,10,1,12,49,37.7799,122.42,903,1,7110,10:01:40,10:01:45,10:02:23,1049.1 _ 7110_4681 _  90, 1038_ VAN NESS AVE&MCALLISTER ST S,00:00:05,00:00:38
2,5603, MISSION ST&MAIN ST N-NS/BZ,1,0,2,10,1,12,514,37.7896,122.395,959,0,6402,10:01:41,10:01:48,10:01:48,1514.0 _ 6402_4681 _  95, 1002_ MISSION ST&MAIN ST N-NS/BZ,00:00:07,00:00:00
41,5603, MISSION ST&MAIN ST N-NS/ - EOL,0,0,1,10,1,12,514,37.7895,122.395,851,1,6402,10:01:41,10:01:48,10:01:48,1514.1 _ 6402_4681 _  85, 1041_ MISSION ST&MAIN ST N-NS/ - EOL,00:00:07,00:00:00
39,4485, EDDY ST&LAGUNA ST SE-FS/BZ,1,1,26,10,1,12,31,37.782,122.427,929,1,5517,10:01:41,10:01:47,10:01:59,1031.1 _ 5517_4681 _  92, 1039_ EDDY ST&LAGUNA ST SE-FS/BZ,00:00:06,00:00:12
20,3283, 16TH ST&CHURCH ST NE-NS/BZ,3,7,35,10,1,12,22,37.7645,122.429,942,1,5471,10:01:42,10:01:58,10:02:40,1022.1 _ 5471_4681 _  94, 1020_ 16TH ST&CHURCH ST NE-NS/BZ,00:00:16,00:00:42
36,4305, GEARY BLVD&LAGUNA ST SW-NS/B,1,1,43,10,1,12,38,37.7851,122.427,925,1,6228,10:01:43,10:02:49,10:02:49,1038.1 _ 6228_4681 _  92, 1036_ GEARY BLVD&LAGUNA ST SW-NS/B,00:01:06,00:00:00
16,6231, 415 ROOSEVELT WAY SE-NS/SB,0,0,2,10,1,12,37,37.7649,122.443,953,0,8506,10:01:44,10:01:44,10:01:44,1037.0 _ 8506_4681 _  95, 1016_ 415 ROOSEVELT WAY SE-NS/SB,00:00:00,00:00:00
26,6728, TURK ST&PARKER AVE SW-NS/BZ,0,3,37,10,1,12,31,37.7777,122.454,943,1,5481,10:01:45,10:01:54,10:02:20,1031.1 _ 5481_4681 _  94, 1026_ TURK ST&PARKER AVE SW-NS/BZ,00:00:09,00:00:26
3,4564, US POST OFFICE S-FS/BZ,2,0,2,10,1,12,44,37.7398,122.383,1001,1,8413,10:01:45,10:02:14,10:02:30,1044.1 _ 8413_4681 _ 100, 1003_ US POST OFFICE S-FS/BZ,00:00:29,00:00:16
7,3948, CHESTNUT ST&LAGUNA ST SW-NS/,6,2,14,10,1,12,30,37.8013,122.432,957,1,5524,10:01:45,10:02:41,10:03:01,1030.1 _ 5524_4681 _  95, 1007_ CHESTNUT ST&LAGUNA ST SW-NS/,00:00:56,00:00:20
19,4100, COLUMBUS AVE&BAY ST W-MB/BZ,0,0,2,10,1,12,30,37.8054,122.418,958,1,5506,10:01:46,10:01:46,10:01:46,1030.1 _ 5506_4681 _  95, 1019_ COLUMBUS AVE&BAY ST W-MB/BZ,00:00:00,00:00:00
13,6843, VAN DYKE AVE&LANE ST E-NS,2,0,11,10,1,12,54,37.7291,122.392,950,0,8165,10:01:47,10:02:30,10:02:30,1054.0 _ 8165_4681 _  95, 1013_ VAN DYKE AVE&LANE ST E-NS,00:00:43,00:00:00
3,5579, MISSION ST&BEALE ST W-FS/BZ,0,0,2,10,1,12,514,37.7896,122.395,959,0,6402,10:01:48,10:01:48,10:01:48,1514.0 _ 6402_4681 _  95, 1003_ MISSION ST&BEALE ST W-FS/BZ,00:00:00,00:00:00
18,4304, GEARY BLVD&LAGUNA ST NE-NS/B,1,1,29,10,1,12,38,37.7851,122.428,937,0,6216,10:01:48,10:02:11,10:02:21,1038.0 _ 6216_4681 _  93, 1018_ GEARY BLVD&LAGUNA ST NE-NS/B,00:00:23,00:00:10
75,6912, WARREN DR&DEVONSHIRE WAY E-N,1,0,8,10,1,12,36,37.7544,122.461,925,1,8504,10:01:48,10:02:08,10:02:08,1036.1 _ 8504_4681 _  92, 1075_ WARREN DR&DEVONSHIRE WAY E-N,00:00:20,00:00:00
59,5962, PLYMOUTH AVE&HOLLOWAY AVE SE,0,0,61,10,1,12,29,37.7218,122.456,911,0,8403,10:01:50,10:02:00,10:02:12,1029.0 _ 8403_4681 _  91, 1059_ PLYMOUTH AVE&HOLLOWAY AVE SE,00:00:10,00:00:12
2,5490, NEWCOMB AVE&NEWHALL ST E-NS/,0,0,17,10,1,12,24,37.7363,122.392,1000,1,5449,10:01:50,10:01:50,10:01:50,1024.1 _ 5449_4681 _ 100, 1002_ NEWCOMB AVE&NEWHALL ST E-NS/,00:00:00,00:00:00
87,6363, SAN BRUNO AVE&PAUL AVE SE-NS,0,4,4,10,1,12,29,37.7237,122.402,853,0,8169,10:01:51,10:02:02,10:02:32,1029.0 _ 8169_4681 _  85, 1087_ SAN BRUNO AVE&PAUL AVE SE-NS,00:00:11,00:00:30
18,5357, MASON ST&ELLIS ST SW-FS/BZ,2,0,21,10,1,12,27,37.785,122.41,945,0,8157,10:01:54,10:02:04,10:02:50,1027.0 _ 8157_4681 _  94, 1018_ MASON ST&ELLIS ST SW-FS/BZ,00:00:10,00:00:46
10,6832, VAN NESS AVE&UNION ST NW-NS/,0,2,11,10,1,12,47,37.7987,122.424,945,0,8205,10:01:55,10:02:07,10:02:18,1047.0 _ 8205_4681 _  94, 1010_ VAN NESS AVE&UNION ST NW-NS/,00:00:12,00:00:11
10,5540, MISSION ST&8TH ST W-FS/BZ,6,1,10,10,1,12,514,37.7773,122.414,950,0,6223,10:01:56,10:02:13,10:02:43,1514.0 _ 6223_4681 _  95, 1010_ MISSION ST&8TH ST W-FS/BZ,00:00:17,00:00:30
10,4258, GEARY BLVD&6TH AVE SW-NS/BZ,3,5,37,10,1,12,538,37.7809,122.464,948,1,6225,10:01:57,10:02:55,10:03:11,1538.1 _ 6225_4681 _  94, 1010_ GEARY BLVD&6TH AVE SW-NS/BZ,00:00:58,00:00:16
37,4354, DE HARO ST&20TH ST SE-NS/SB,1,0,22,10,1,12,19,37.7597,122.401,940,1,8227,10:01:57,10:02:06,10:02:06,1019.1 _ 8227_4681 _  94, 1037_ DE HARO ST&20TH ST SE-NS/SB,00:00:09,00:00:00
8,3221, 9TH AVE&LINCOLN WAY SW-FS/BZ,1,2,20,10,1,12,44,37.7657,122.466,955,0,8155,10:02:01,10:02:12,10:02:29,1044.0 _ 8155_4681 _  95, 1008_ 9TH AVE&LINCOLN WAY SW-FS/BZ,00:00:11,00:00:17
13,5624, MISSION ST&TRUMBULL ST SE-NS,4,3,16,10,1,12,49,37.7306,122.429,948,1,7120,10:02:01,10:02:41,10:03:00,1049.1 _ 7120_4681 _  94, 1013_ MISSION ST&TRUMBULL ST SE-NS,00:00:40,00:00:19
60,6770, UNION ST&LAGUNA ST NE-NS/BZ,0,1,7,10,1,12,45,37.7977,122.43,929,0,5523,10:02:05,10:02:14,10:02:14,1045.0 _ 5523_4681 _  92, 1060_ UNION ST&LAGUNA ST NE-NS/BZ,00:00:09,00:00:00
59,6056, POWELL ST&FRANCISCO ST SE-NS,0,0,5,10,1,12,808,37.8048,122.412,850,1,6204,10:02:05,10:02:05,10:02:05,1808.1 _ 6204_4681 _  85, 1059_ POWELL ST&FRANCISCO ST SE-NS,00:00:00,00:00:00
7,5000, HAYES ST&LYON ST SW-NS/BZ,0,0,15,10,1,12,21,37.7744,122.443,957,1,5513,10:02:06,10:02:06,10:02:06,1021.1 _ 5513_4681 _  95, 1007_ HAYES ST&LYON ST SW-NS/BZ,00:00:00,00:00:00
44,3076, BRODERICK ST&JEFFERSON ST SE,1,0,4,10,1,12,30,37.8043,122.445,931,0,5482,10:02:08,10:02:15,10:02:15,1030.0 _ 5482_4681 _  93, 1044_ BRODERICK ST&JEFFERSON ST SE,00:00:07,00:00:00
44,6026, POTRERO AVE&16TH ST NE-FS/BZ,1,2,20,10,1,12,509,37.7661,122.408,944,1,8168,10:02:08,10:02:17,10:02:30,1509.1 _ 8168_4681 _  94, 1044_ POTRERO AVE&16TH ST NE-FS/BZ,00:00:09,00:00:13
37,3036, BALBOA ST&8TH AVE NE-NS/PS,0,0,24,10,1,12,31,37.7772,122.466,918,0,5500,10:02:11,10:02:11,10:02:11,1031.0 _ 5500_4681 _  91, 1037_ BALBOA ST&8TH AVE NE-NS/PS,00:00:00,00:00:00
42,6021, POST ST&POLK ST SE-FS/BZ,3,2,38,10,1,12,2,37.7869,122.42,930,1,8005,10:02:12,10:02:30,10:02:52,1002.1 _ 8005_4681 _  93, 1042_ POST ST&POLK ST SE-FS/BZ,00:00:18,00:00:22
5,6035, POTRERO AVE&22ND ST NE-FS/BZ,1,0,12,10,1,12,33,37.757,122.407,1005,1,5467,10:02:12,10:02:23,10:02:38,1033.1 _ 5467_4681 _ 100, 1005_ POTRERO AVE&22ND ST NE-FS/BZ,00:00:11,00:00:15
62,6340, SANTOS ST&BROOKDALE AVE SE-N,0,2,3,10,1,12,9,37.7118,122.419,906,0,8414,10:02:12,10:02:21,10:02:51,1009.0 _ 8414_4681 _  90, 1062_ SANTOS ST&BROOKDALE AVE SE-N,00:00:09,00:00:30
14,4913, GRAFTON AVE&LEE ST SW-NS,1,3,12,10,1,12,54,37.7201,122.454,955,1,8405,10:02:12,10:02:21,10:02:37,1054.1 _ 8405_4681 _  95, 1014_ GRAFTON AVE&LEE ST SW-NS,00:00:09,00:00:16
16,3793, BAYSHORE BLVD&VISITACION AVE,0,4,16,10,1,12,9,37.7106,122.404,1000,1,8159,10:02:13,10:02:21,10:02:42,1009.1 _ 8159_4681 _ 100, 1016_ BAYSHORE BLVD&VISITACION AVE,00:00:08,00:00:21
3,5491, NEWHALL ST&OAKDALE AVE N-NS/,3,0,20,10,1,12,24,37.7358,122.392,1000,1,5449,10:02:14,10:02:30,10:02:30,1024.1 _ 5449_4681 _ 100, 1003_ NEWHALL ST&OAKDALE AVE N-NS/,00:00:16,00:00:00
31,4765, GEARY BLVD&ST JOSEPHS AVE SE,1,0,57,10,1,12,38,37.7828,122.442,937,1,6201,10:02:14,10:02:19,10:02:34,1038.1 _ 6201_4681 _  93, 1031_ GEARY BLVD&ST JOSEPHS AVE SE,00:00:05,00:00:15
69,4951, HAIGHT ST&DIVISADERO ST SE-F,1,1,6,10,1,12,6,37.7713,122.437,941,1,5446,10:02:17,10:02:24,10:02:50,1006.1 _ 5446_4681 _  94, 1069_ HAIGHT ST&DIVISADERO ST SE-F,00:00:07,00:00:26
18,4145, CORTLAND AVE&BOCANA ST NE-NS,0,0,19,10,1,12,24,37.7393,122.418,949,1,5459,10:02:17,10:02:23,10:02:23,1024.1 _ 5459_4681 _  94, 1018_ CORTLAND AVE&BOCANA ST NE-NS,00:00:06,00:00:00
55,6691, TOWNSEND ST&3RD ST E-FS/BZ,0,0,12,10,1,12,10,37.7789,122.393,944,1,8235,10:02:18,10:02:18,10:02:18,1010.1 _ 8235_4681 _  94, 1055_ TOWNSEND ST&3RD ST E-FS/BZ,00:00:00,00:00:00
52,4822, KEARNY ST&JACKSON ST SE-NS/B,0,6,5,10,1,12,908,37.7962,122.405,916,1,6231,10:02:18,10:02:26,10:03:55,1908.1 _ 6231_4681 _  91, 1052_ KEARNY ST&JACKSON ST SE-NS/B,00:00:08,00:01:29
73,5847, PACIFIC AVE&MASON ST NE-NS/S,1,4,30,10,1,12,10,37.7964,122.412,903,1,8203,10:02:19,10:02:32,10:03:32,1010.1 _ 8203_4681 _  90, 1073_ PACIFIC AVE&MASON ST NE-NS/S,00:00:13,00:01:00
6,5688, MARKET ST&POWELL ST N-NS/BZ,0,0,3,10,1,12,5,37.7842,122.407,944,0,5491,10:02:20,10:02:58,10:03:34,1005.0 _ 5491_4681 _  94, 1006_ MARKET ST&POWELL ST N-NS/BZ,00:00:38,00:00:36
8,4980, HAYES ST&BAKER ST SW-NS/BZ,6,0,21,10,1,12,21,37.7745,122.441,957,1,5513,10:02:21,10:03:19,10:03:19,1021.1 _ 5513_4681 _  95, 1008_ HAYES ST&BAKER ST SW-NS/BZ,00:00:58,00:00:00
18,5329, LINCOLN WAY&LA PLAYA ST SW-N,0,1,6,10,1,12,18,37.764,122.51,949,0,8406,10:02:21,10:02:25,10:02:39,1018.0 _ 8406_4681 _  94, 1018_ LINCOLN WAY&LA PLAYA ST SW-N,00:00:04,00:00:14
40,4478, EDDY ST&GOUGH ST SW-NS/BZ,3,0,29,10,1,12,31,37.7824,122.424,929,1,5517,10:02:23,10:02:31,10:03:07,1031.1 _ 5517_4681 _  92, 1040_ EDDY ST&GOUGH ST SW-NS/BZ,00:00:08,00:00:36
22,5571, MISSION ST&30TH ST E-FS/BB,6,4,42,10,1,12,14,37.7426,122.422,939,1,7105,10:02:23,10:03:03,10:03:33,1014.1 _ 7105_4681 _  93, 1022_ MISSION ST&30TH ST E-FS/BB,00:00:40,00:00:30
41,5541, MISSION ST&8TH ST E-FS/BZ,2,3,13,10,1,12,14,37.7777,122.413,903,1,7113,10:02:24,10:02:49,10:03:05,1014.1 _ 7113_4681 _  90, 1041_ MISSION ST&8TH ST E-FS/BZ,00:00:25,00:00:16
11,4963, HAIGHT ST&STANYAN ST SE-FS/B,4,1,22,10,1,12,33,37.7691,122.453,950,0,5456,10:02:24,10:02:50,10:03:10,1033.0 _ 5456_4681 _  95, 1011_ HAIGHT ST&STANYAN ST SE-FS/B,00:00:26,00:00:20
8,6801, VAN NESS AVE&CHESTNUT ST NW-,0,2,11,10,1,12,47,37.8024,122.425,954,0,8221,10:02:25,10:02:33,10:03:59,1047.0 _ 8221_4681 _  95, 1008_ VAN NESS AVE&CHESTNUT ST NW-,00:00:08,00:01:26
31,5551, MISSION ST&16TH ST NE-FS/BZ,8,6,26,10,1,12,49,37.7653,122.42,921,1,7116,10:02:25,10:02:56,10:03:17,1049.1 _ 7116_4681 _  92, 1031_ MISSION ST&16TH ST NE-FS/BZ,00:00:31,00:00:21
60,7496, 2ND ST&FOLSOM ST N-FS/BZ,0,0,26,10,1,12,12,37.7852,122.397,932,1,8215,10:02:26,10:02:26,10:02:26,1012.1 _ 8215_4681 _  93, 1060_ 2ND ST&FOLSOM ST N-FS/BZ,00:00:00,00:00:00
38,6212, ROUSSEAU ST&CAYUGA AVE E-NS/,0,0,32,10,1,12,44,37.7317,122.43,937,1,8415,10:02:27,10:02:27,10:02:27,1044.1 _ 8415_4681 _  93, 1038_ ROUSSEAU ST&CAYUGA AVE E-NS/,00:00:00,00:00:00
62,3201, 8TH AVE&FULTON ST NE-FS/BZ,3,4,32,10,1,12,44,37.7737,122.466,912,1,8171,10:02:29,10:02:45,10:03:01,1044.1 _ 8171_4681 _  91, 1062_ 8TH AVE&FULTON ST NE-FS/BZ,00:00:16,00:00:16
76,6908, 345 WARREN DR E-MB/SB,0,0,8,10,1,12,36,37.7552,122.461,925,1,8504,10:02:29,10:02:29,10:02:29,1036.1 _ 8504_4681 _  92, 1076_ 345 WARREN DR E-MB/SB,00:00:00,00:00:00
11,6598, SUTTER ST&LEAVENWORTH ST NW-,2,1,21,10,1,12,2,37.7884,122.415,951,0,8001,10:02:29,10:02:40,10:02:40,1002.0 _ 8001_4681 _  95, 1011_ SUTTER ST&LEAVENWORTH ST NW-,00:00:11,00:00:00
9,3238, 11TH ST&HARRISON ST N-FS/BZ,1,0,11,10,1,12,47,37.7709,122.413,943,1,8233,10:02:30,10:02:39,10:02:59,1047.1 _ 8233_4681 _  94, 1009_ 11TH ST&HARRISON ST N-FS/BZ,00:00:09,00:00:20
60,5974, PLYMOUTH AVE&OCEAN AVE SE-NS,0,0,61,10,1,12,29,37.7237,122.456,911,0,8403,10:02:30,10:02:30,10:02:30,1029.0 _ 8403_4681 _  91, 1060_ PLYMOUTH AVE&OCEAN AVE SE-NS,00:00:00,00:00:00
12,4763, GEARY BLVD&SPRUCE ST SW-NS/B,1,0,22,10,1,12,538,37.7816,122.453,936,1,6220,10:02:32,10:02:37,10:02:56,1538.1 _ 6220_4681 _  93, 1012_ GEARY BLVD&SPRUCE ST SW-NS/B,00:00:05,00:00:19
20,4107, COLUMBUS AVE&FRANCISCO ST SW,0,0,2,10,1,12,30,37.8044,122.416,958,1,5506,10:02:33,10:02:33,10:02:33,1030.1 _ 5506_4681 _  95, 1020_ COLUMBUS AVE&FRANCISCO ST SW,00:00:00,00:00:00
17,6240, ROOSEVELT WAY&MUSEUM WAY E-F,3,0,5,10,1,12,37,37.7655,122.441,953,0,8506,10:02:35,10:02:42,10:02:42,1037.0 _ 8506_4681 _  95, 1017_ ROOSEVELT WAY&MUSEUM WAY E-F,00:00:07,00:00:00
38,4353, DE HARO ST&19TH ST SE-NS/PS,0,0,22,10,1,12,19,37.7608,122.401,940,1,8227,10:02:36,10:02:36,10:02:36,1019.1 _ 8227_4681 _  94, 1038_ DE HARO ST&19TH ST SE-NS/PS,00:00:00,00:00:00
5,5528, MISSION ST&1ST ST N-NS/BZ,0,0,2,10,1,12,514,37.7893,122.397,959,0,6402,10:02:36,10:02:36,10:02:36,1514.0 _ 6402_4681 _  95, 1005_ MISSION ST&1ST ST N-NS/BZ,00:00:00,00:00:00
11,6834, VAN NESS AVE&VALLEJO ST SW-F,2,0,13,10,1,12,47,37.7965,122.424,945,0,8205,10:02:37,10:02:48,10:03:18,1047.0 _ 8205_4681 _  94, 1011_ VAN NESS AVE&VALLEJO ST SW-F,00:00:11,00:00:30
41,4313, CASTRO ST&17TH ST SE-NS/BZ,10,6,32,10,1,12,24,37.7623,122.435,928,1,5463,10:02:39,10:03:52,10:04:08,1024.1 _ 5463_4681 _  92, 1041_ CASTRO ST&17TH ST SE-NS/BZ,00:01:13,00:00:16
38,3038, BALBOA ST&10TH AVE NE-NS/PS,0,4,20,10,1,12,31,37.7771,122.468,918,0,5500,10:02:39,10:02:49,10:03:04,1031.0 _ 5500_4681 _  91, 1038_ BALBOA ST&10TH AVE NE-NS/PS,00:00:10,00:00:15
57,5645, MARKET ST&5TH ST S-NS/SI,1,7,16,10,1,12,9,37.7838,122.408,859,1,8401,10:02:40,10:03:31,10:04:03,1009.1 _ 8401_4681 _  85, 1057_ MARKET ST&5TH ST S-NS/SI,00:00:51,00:00:32
7,5115, INGERSON AVE&GRIFFITH ST E-M,0,1,0,10,1,12,29,37.7171,122.389,958,1,8179,10:02:40,10:02:46,10:02:46,1029.1 _ 8179_4681 _  95, 1007_ INGERSON AVE&GRIFFITH ST E-M,00:00:06,00:00:00
10,6513, STOCKTON ST&COLUMBUS AVE SW-,13,3,31,10,1,12,708,37.7991,122.409,955,0,6209,10:02:41,10:03:26,10:03:54,1708.0 _ 6209_4681 _  95, 1010_ STOCKTON ST&COLUMBUS AVE SW-,00:00:45,00:00:28
28,4226, FULTON ST&CLAYTON ST SE-FS/B,0,2,10,10,1,12,5,37.7756,122.45,946,1,5493,10:02:42,10:02:54,10:03:07,1005.1 _ 5493_4681 _  94, 1028_ FULTON ST&CLAYTON ST SE-FS/B,00:00:12,00:00:13
48,4826, KEARNY ST&SUTTER ST SE-NS/BZ,0,0,57,10,1,12,708,37.7894,122.404,858,1,6214,10:02:42,10:02:43,10:02:45,1708.1 _ 6214_4681 _  85, 1048_ KEARNY ST&SUTTER ST SE-NS/BZ,00:00:01,00:00:02
21,4334, CASTRO ST&MARKET ST SW-FS/BB,0,6,13,10,1,12,24,37.7622,122.435,940,0,5461,10:02:42,10:03:02,10:03:02,1024.0 _ 5461_4681 _  94, 1021_ CASTRO ST&MARKET ST SW-FS/BB,00:00:20,00:00:00
19,4769, GEARY BLVD&WEBSTER ST NE-NS/,0,3,26,10,1,12,38,37.7848,122.431,937,0,6216,10:02:44,10:02:51,10:03:04,1038.0 _ 6216_4681 _  93, 1019_ GEARY BLVD&WEBSTER ST NE-NS/,00:00:07,00:00:13
16,5548, MISSION ST&14TH ST SW-FS/BZ,4,5,28,10,1,12,14,37.7679,122.42,932,0,7118,10:02:44,10:02:54,10:03:16,1014.0 _ 7118_4681 _  93, 1016_ MISSION ST&14TH ST SW-FS/BZ,00:00:10,00:00:22
2,3023, BAKER BEACH PARKING LOT SW-F,0,0,4,10,1,12,29,37.7904,122.482,1001,0,8153,10:02:44,10:02:44,10:02:44,1029.0 _ 8153_4681 _ 100, 1002_ BAKER BEACH PARKING LOT SW-F,00:00:00,00:00:00
5,4551, EVANS AVE&KEITH ST W-NS/PS,0,0,2,10,1,12,44,37.739,122.381,1001,1,8413,10:02:44,10:02:44,10:02:44,1044.1 _ 8413_4681 _ 100, 1005_ EVANS AVE&KEITH ST W-NS/PS,00:00:00,00:00:00
61,7056, UNION ST&BUCHANAN ST NE-NS/B,0,0,7,10,1,12,45,37.7976,122.432,929,0,5523,10:02:45,10:02:51,10:03:07,1045.0 _ 5523_4681 _  92, 1061_ UNION ST&BUCHANAN ST NE-NS/B,00:00:06,00:00:16
60,6045, POWELL ST&BAY ST SE-NS/PS,0,1,4,10,1,12,808,37.8055,122.412,850,1,6204,10:02:46,10:02:55,10:03:43,1808.1 _ 6204_4681 _  85, 1060_ POWELL ST&BAY ST SE-NS/PS,00:00:09,00:00:48
35,6787, UNION ST&VAN NESS AVE SW-NS/,5,3,16,10,1,12,45,37.7985,122.424,953,1,5515,10:02:47,10:04:06,10:04:06,1045.1 _ 5515_4681 _  95, 1035_ UNION ST&VAN NESS AVE SW-NS/,00:01:19,00:00:00
19,6823, VAN NESS AVE&OFARRELL ST NE-,2,1,21,10,1,12,47,37.785,122.421,953,1,8015,10:02:47,10:03:59,10:04:41,1047.1 _ 8015_4681 _  95, 1019_ VAN NESS AVE&OFARRELL ST NE-,00:01:12,00:00:42
45,5173, JEFFERSON ST&DIVISADERO ST S,0,0,4,10,1,12,30,37.8046,122.444,931,0,5482,10:02:47,10:02:47,10:02:47,1030.0 _ 5482_4681 _  93, 1045_ JEFFERSON ST&DIVISADERO ST S,00:00:00,00:00:00
49,4818, KEARNY ST&BUSH ST NE-FS/BZ,0,0,57,10,1,12,708,37.7909,122.403,858,1,6214,10:02:47,10:02:47,10:02:47,1708.1 _ 6214_4681 _  85, 1049_ KEARNY ST&BUSH ST NE-FS/BZ,00:00:00,00:00:00
7,5684, MARKET ST&MONTGOMERY ST W-FS,5,1,9,10,1,12,31,37.7882,122.402,954,0,5499,10:02:48,10:03:16,10:03:37,1031.0 _ 5499_4681 _  95, 1007_ MARKET ST&MONTGOMERY ST W-FS,00:00:28,00:00:21
11,5680, MARKET ST&LARKIN ST N-NS/SI,3,0,31,10,1,12,9,37.7777,122.416,942,0,8167,10:02:49,10:03:24,10:03:54,1009.0 _ 8167_4681 _  94, 1011_ MARKET ST&LARKIN ST N-NS/SI,00:00:35,00:00:30
39,6509, STILL ST&LYELL ST NE-NS/PS,0,0,32,10,1,12,44,37.7323,122.431,937,1,8415,10:02:50,10:02:50,10:02:50,1044.1 _ 8415_4681 _  93, 1039_ STILL ST&LYELL ST NE-NS/PS,00:00:00,00:00:00
50,4819, KEARNY ST&CALIFORNIA ST NE-F,1,5,53,10,1,12,708,37.7916,122.404,858,1,6214,10:02:51,10:05:52,10:06:00,1708.1 _ 6214_4681 _  85, 1050_ KEARNY ST&CALIFORNIA ST NE-F,00:03:01,00:00:08
4,5492, NEWHALL ST&PALOU AVE N-NS/SB,1,0,21,10,1,12,24,37.7351,122.393,1000,1,5449,10:02:52,10:03:03,10:03:24,1024.1 _ 5449_4681 _ 100, 1004_ NEWHALL ST&PALOU AVE N-NS/SB,00:00:11,00:00:21
19,4149, CORTLAND AVE&ELSIE ST N-FS/B,0,0,19,10,1,12,24,37.74,122.42,949,1,5459,10:02:52,10:02:52,10:02:52,1024.1 _ 5459_4681 _  94, 1019_ CORTLAND AVE&ELSIE ST N-FS/B,00:00:00,00:00:00
27,6715, TURK ST&CHABOT TER SE-FS/BZ,0,9,28,10,1,12,31,37.7779,122.451,943,1,5481,10:02:53,10:03:05,10:03:05,1031.1 _ 5481_4681 _  94, 1027_ TURK ST&CHABOT TER SE-FS/BZ,00:00:12,00:00:00
2,7532, SOUTH VAN NESS & 24ST. NS-SE,0,0,7,10,1,12,67,37.7523,122.416,1000,0,8180,10:02:54,10:02:54,10:02:54,1067.0 _ 8180_4681 _ 100, 1002_ SOUTH VAN NESS & 24ST. NS-SE,00:00:00,00:00:00
14,6968, WILLIAMS AVE&3RD ST N-FS,2,0,13,10,1,12,54,37.7294,122.393,950,0,8165,10:02:54,10:03:03,10:03:03,1054.0 _ 8165_4681 _  95, 1014_ WILLIAMS AVE&3RD ST N-FS,00:00:09,00:00:00
13,5655, MARKET ST&5TH ST NORTH N-NS/,7,1,14,10,1,12,6,37.7841,122.408,954,0,5464,10:02:55,10:03:20,10:04:02,1006.0 _ 5464_4681 _  95, 1013_ MARKET ST&5TH ST NORTH N-NS/,00:00:25,00:00:42
23,3089, BEALE ST&MISSION ST W-MB/BZ,0,8,1,10,1,12,538,37.7911,122.397,919,1,6210,10:02:55,10:03:04,10:03:30,1538.1 _ 6210_4681 _  91, 1023_ BEALE ST&MISSION ST W-MB/BZ,00:00:09,00:00:26
53,4824, KEARNY ST&PACIFIC AVE NE - EOL,0,27,0,10,1,12,908,37.7974,122.405,908,1,6213,10:02:55,10:03:32,10:04:36,1908.1 _ 6213_4681 _  90, 1053_ KEARNY ST&PACIFIC AVE NE - EOL,00:00:37,00:01:04
44,3928, CESAR CHAVEZ ST&ALABAMA ST N,2,0,8,10,1,12,27,37.7484,122.41,915,0,8175,10:02:56,10:03:06,10:03:06,1027.0 _ 8175_4681 _  91, 1044_ CESAR CHAVEZ ST&ALABAMA ST N,00:00:10,00:00:00
39,6831, VAN NESS AVE&TURK ST NE-FS/B,2,2,27,10,1,12,49,37.7822,122.421,903,1,7110,10:02:57,10:03:10,10:03:40,1049.1 _ 7110_4681 _  90, 1039_ VAN NESS AVE&TURK ST NE-FS/B,00:00:13,00:00:30
77,6909, 400 WARREN DR E-MB/AB,0,0,8,10,1,12,36,37.7571,122.462,925,1,8504,10:02:58,10:02:58,10:02:58,1036.1 _ 8504_4681 _  92, 1077_ 400 WARREN DR E-MB/AB,00:00:00,00:00:00
8,6094, PRESIDIO AVE&JACKSON ST NW-N,0,0,12,10,1,12,43,37.7911,122.448,952,0,8220,10:02:58,10:02:58,10:02:58,1043.0 _ 8220_4681 _  95, 1008_ PRESIDIO AVE&JACKSON ST NW-N,00:00:00,00:00:00
39,4352, DE HARO ST&18TH ST SE-NS/SB,1,0,23,10,1,12,19,37.7622,122.401,940,1,8227,10:02:59,10:03:03,10:03:03,1019.1 _ 8227_4681 _  94, 1039_ DE HARO ST&18TH ST SE-NS/SB,00:00:04,00:00:00
38,6367, SAN BRUNO AVE&THORNTON AVE E,1,0,78,10,1,12,708,37.7303,122.405,925,1,6230,10:02:59,10:03:21,10:03:35,1708.1 _ 6230_4681 _  92, 1038_ SAN BRUNO AVE&THORNTON AVE E,00:00:22,00:00:14
6,6032, POTRERO AVE&20TH ST NE-FS/BZ,0,0,12,10,1,12,33,37.7594,122.407,1005,1,5467,10:03:00,10:03:00,10:03:00,1033.1 _ 5467_4681 _ 100, 1006_ POTRERO AVE&20TH ST NE-FS/BZ,00:00:00,00:00:00
61,5795, OCEAN AVE&LEE ST SW-NS,5,31,35,10,1,12,29,37.7235,122.454,911,0,8403,10:03:00,10:04:04,10:04:04,1029.0 _ 8403_4681 _  91, 1061_ OCEAN AVE&LEE ST SW-NS,00:01:04,00:00:00
46,4407, DIVISADERO ST&BEACH ST NW-NS,0,0,4,10,1,12,30,37.8037,122.444,931,0,5482,10:03:01,10:03:01,10:03:01,1030.0 _ 5482_4681 _  93, 1046_ DIVISADERO ST&BEACH ST NW-NS,00:00:00,00:00:00
88,5905, PAUL AVE&WHEAT ST SW-NS/PS,0,0,4,10,1,12,29,37.7235,122.4,853,0,8169,10:03:02,10:03:02,10:03:02,1029.0 _ 8169_4681 _  85, 1088_ PAUL AVE&WHEAT ST SW-NS/PS,00:00:00,00:00:00
20,4160, CORTLAND AVE&PROSPECT AVE N-,1,0,20,10,1,12,24,37.7404,122.421,949,1,5459,10:03:04,10:03:15,10:03:15,1024.1 _ 5459_4681 _  94, 1020_ CORTLAND AVE&PROSPECT AVE N-,00:00:11,00:00:00
3,3705, LINCOLN BLVD&BOWLEY AVE SW-F,0,0,4,10,1,12,29,37.7888,122.482,1001,0,8153,10:03:04,10:03:04,10:03:04,1029.0 _ 8153_4681 _ 100, 1003_ LINCOLN BLVD&BOWLEY AVE SW-F,00:00:00,00:00:00
43,6016, POST ST&LARKIN ST SE-FS/BZ,1,1,38,10,1,12,2,37.7873,122.418,930,1,8005,10:03:06,10:03:12,10:03:33,1002.1 _ 8005_4681 _  93, 1043_ POST ST&LARKIN ST SE-FS/BZ,00:00:06,00:00:21
21,7073, CHURCH ST&MARKET ST SE-NS/SI,4,6,33,10,1,12,22,37.7672,122.429,942,1,5471,10:03:07,10:05:06,10:05:24,1022.1 _ 5471_4681 _  94, 1021_ CHURCH ST&MARKET ST SE-NS/SI,00:01:59,00:00:18
32,3984, CHURCH ST&16TH ST NW-NS/SI,0,1,19,10,1,12,22,37.7647,122.429,933,0,5453,10:03:07,10:03:13,10:04:33,1022.0 _ 5453_4681 _  93, 1032_ CHURCH ST&16TH ST NW-NS/SI,00:00:06,00:01:20
78,6910, 455 WARREN DR E-MB/SB,1,0,9,10,1,12,36,37.7579,122.462,925,1,8504,10:03:08,10:03:08,10:03:08,1036.1 _ 8504_4681 _  92, 1078_ 455 WARREN DR E-MB/SB,00:00:00,00:00:00
24,4225, FULTON ST&CLAYTON ST NW-FS/B,1,3,14,10,1,12,5,37.7754,122.45,916,0,5508,10:03:08,10:03:16,10:03:42,1005.0 _ 5508_4681 _  91, 1024_ FULTON ST&CLAYTON ST NW-FS/B,00:00:08,00:00:26
15,5446, MT VERNON AVE&HOWTH ST W-NS,0,0,12,10,1,12,54,37.7197,122.451,955,1,8405,10:03:08,10:03:08,10:03:08,1054.1 _ 8405_4681 _  95, 1015_ MT VERNON AVE&HOWTH ST W-NS,00:00:00,00:00:00
61,7548, 2ND ST&HOWARD ST E-NS/BZ,0,6,20,10,1,12,12,37.7869,122.398,932,1,8215,10:03:08,10:03:24,10:03:43,1012.1 _ 8215_4681 _  93, 1061_ 2ND ST&HOWARD ST E-NS/BZ,00:00:16,00:00:19
21,4118, COLUMBUS AVE&TAYLOR ST S-FS/,2,0,4,10,1,12,30,37.8033,122.415,958,1,5506,10:03:09,10:03:17,10:03:17,1030.1 _ 5506_4681 _  95, 1021_ COLUMBUS AVE&TAYLOR ST S-FS/,00:00:08,00:00:00
32,4294, GEARY BLVD&DIVISADERO ST SW-,13,7,63,10,1,12,38,37.7832,122.44,937,1,6201,10:03:12,10:03:48,10:04:18,1038.1 _ 6201_4681 _  93, 1032_ GEARY BLVD&DIVISADERO ST SW-,00:00:36,00:00:30
8,5116, INGERSON AVE&HAWES ST E-NS/S,3,2,3,10,1,12,29,37.718,122.391,958,1,8179,10:03:12,10:03:28,10:03:58,1029.1 _ 8179_4681 _  95, 1008_ INGERSON AVE&HAWES ST E-NS/S,00:00:16,00:00:30
18,6233, ROOSEVELT WAY&15TH ST S-NS/S,0,0,5,10,1,12,37,37.7664,122.44,953,0,8506,10:03:12,10:03:12,10:03:12,1037.0 _ 8506_4681 _  95, 1018_ ROOSEVELT WAY&15TH ST S-NS/S,00:00:00,00:00:00
6,4552, EVANS AVE&MIDDLE POINT RD W-,0,0,2,10,1,12,44,37.7377,122.379,1001,1,8413,10:03:14,10:03:14,10:03:14,1044.1 _ 8413_4681 _ 100, 1006_ EVANS AVE&MIDDLE POINT RD W-,00:00:00,00:00:00
19,3583, 46TH AVE&LINCOLN WAY SW-FS/P,1,0,7,10,1,12,18,37.7639,122.506,949,0,8406,10:03:14,10:03:24,10:03:24,1018.0 _ 8406_4681 _  94, 1019_ 46TH AVE&LINCOLN WAY SW-FS/P,00:00:10,00:00:00
4,3124, 3RD ST&FOLSOM ST N-FS/BZ,0,0,5,10,1,12,30,37.7841,122.399,956,0,5505,10:03:14,10:03:22,10:03:22,1030.0 _ 5505_4681 _  95, 1004_ 3RD ST&FOLSOM ST N-FS/BZ,00:00:08,00:00:00
31,5535, MISSION ST&5TH ST S-NS/BZ,0,14,50,10,1,12,514,37.7824,122.407,914,1,6218,10:03:15,10:03:33,10:03:46,1514.1 _ 6218_4681 _  91, 1031_ MISSION ST&5TH ST S-NS/BZ,00:00:18,00:00:13
12,6594, SUTTER ST&HYDE ST NW-FS/BZ,0,1,20,10,1,12,2,37.788,122.417,951,0,8001,10:03:16,10:03:32,10:03:32,1002.0 _ 8001_4681 _  95, 1012_ SUTTER ST&HYDE ST NW-FS/BZ,00:00:16,00:00:00
47,4430, DIVISADERO ST&NORTH POINT ST,0,0,4,10,1,12,30,37.8029,122.443,931,0,5482,10:03:17,10:03:17,10:03:17,1030.0 _ 5482_4681 _  93, 1047_ DIVISADERO ST&NORTH POINT ST,00:00:00,00:00:00
63,6566, 1800 SUNNYDALE AVE NE-FS/SB,0,0,3,10,1,12,9,37.713,122.42,906,0,8414,10:03:17,10:03:17,10:03:17,1009.0 _ 8414_4681 _  90, 1063_ 1800 SUNNYDALE AVE NE-FS/SB,00:00:00,00:00:00
56,7547, 2ND ST&TOWNSEND ST N-FS/BZ,0,0,12,10,1,12,10,37.7809,122.391,944,1,8235,10:03:18,10:03:18,10:03:18,1010.1 _ 8235_4681 _  94, 1056_ 2ND ST&TOWNSEND ST N-FS/BZ,00:00:00,00:00:00
39,3040, BALBOA ST&12TH AVE NE-NS/PS,0,0,20,10,1,12,31,37.777,122.47,918,0,5500,10:03:19,10:03:19,10:03:19,1031.0 _ 5500_4681 _  91, 1039_ BALBOA ST&12TH AVE NE-NS/PS,00:00:00,00:00:00
8,3951, CHESTNUT ST&OCTAVIA ST SE-FS,6,1,19,10,1,12,30,37.8016,122.429,957,1,5524,10:03:19,10:03:45,10:03:45,1030.1 _ 5524_4681 _  95, 1008_ CHESTNUT ST&OCTAVIA ST SE-FS,00:00:26,00:00:00
10,3236, 11TH ST&FOLSOM ST N-FS/BZ,2,0,13,10,1,12,47,37.7721,122.414,943,1,8233,10:03:19,10:03:24,10:03:39,1047.1 _ 8233_4681 _  94, 1010_ 11TH ST&FOLSOM ST N-FS/BZ,00:00:05,00:00:15
41,5794, OCEAN AVE&LEE ST NE-NS/SI,5,5,20,10,1,12,29,37.7234,122.454,928,1,8158,10:03:19,10:03:37,10:04:06,1029.1 _ 8158_4681 _  92, 1041_ OCEAN AVE&LEE ST NE-NS/SI,00:00:18,00:00:29
70,4961, HAIGHT ST&PIERCE ST SW-NS/BZ,1,0,7,10,1,12,6,37.7718,122.434,941,1,5446,10:03:21,10:03:27,10:03:42,1006.1 _ 5446_4681 _  94, 1070_ HAIGHT ST&PIERCE ST SW-NS/BZ,00:00:06,00:00:15
16,5447, MT VERNON AVE&LOUISBURG ST W,0,0,12,10,1,12,54,37.7195,122.451,955,1,8405,10:03:21,10:03:21,10:03:21,1054.1 _ 8405_4681 _  95, 1016_ MT VERNON AVE&LOUISBURG ST W,00:00:00,00:00:00
33,3779, BAYSHORE BLVD&CORTLAND AVE N,1,2,19,10,1,12,509,37.7397,122.407,936,0,8174,10:03:22,10:03:34,10:04:34,1509.0 _ 8174_4681 _  93, 1033_ BAYSHORE BLVD&CORTLAND AVE N,00:00:12,00:01:00
20,4295, GEARY BLVD&FILLMORE ST NW-FS,7,3,30,10,1,12,38,37.7845,122.433,937,0,6216,10:03:23,10:03:42,10:04:09,1038.0 _ 6216_4681 _  93, 1020_ GEARY BLVD&FILLMORE ST NW-FS,00:00:19,00:00:27
18,6352, SAN BRUNO AVE&ARLETA AVE NE-,1,0,17,10,1,12,9,37.7125,122.402,1000,1,8159,10:03:24,10:03:33,10:03:33,1009.1 _ 8159_4681 _ 100, 1018_ SAN BRUNO AVE&ARLETA AVE NE-,00:00:09,00:00:00
42,7129, MISSION ST&7TH ST E-FS/BZ,2,2,13,10,1,12,14,37.7792,122.411,903,1,7113,10:03:24,10:03:35,10:04:05,1014.1 _ 7113_4681 _  90, 1042_ MISSION ST&7TH ST E-FS/BZ,00:00:11,00:00:30
6,5529, MISSION ST&2ND ST W-FS/BZ,4,0,6,10,1,12,514,37.7879,122.4,959,0,6402,10:03:25,10:03:41,10:04:11,1514.0 _ 6402_4681 _  95, 1006_ MISSION ST&2ND ST W-FS/BZ,00:00:16,00:00:30
21,7310, ROOSEVELT WAY&BUENA VISTA TE,0,0,5,10,1,12,37,37.7666,122.439,953,0,8506,10:03:25,10:03:25,10:03:25,1037.0 _ 8506_4681 _  95, 1021_ ROOSEVELT WAY&BUENA VISTA TE,00:00:00,00:00:00
7,6030, POTRERO AVE&18TH ST SE-NS/BZ,0,0,12,10,1,12,33,37.7617,122.407,1005,1,5467,10:03:26,10:03:41,10:04:04,1033.1 _ 5467_4681 _ 100, 1007_ POTRERO AVE&18TH ST SE-NS/BZ,00:00:15,00:00:23
21,4946, HAIGHT ST&CLAYTON ST NE-NS/B,0,0,23,10,1,12,43,37.7698,122.449,930,0,8234,10:03:27,10:03:27,10:03:27,1043.0 _ 8234_4681 _  93, 1021_ HAIGHT ST&CLAYTON ST NE-NS/B,00:00:00,00:00:00
5,5674, MARKET ST&GRANT AVE W-FS/BZ,2,0,3,10,1,12,5,37.7863,122.405,953,0,5525,10:03:27,10:03:38,10:03:56,1005.0 _ 5525_4681 _  95, 1005_ MARKET ST&GRANT AVE W-FS/BZ,00:00:11,00:00:18
15,6522, STOCKTON ST&SACRAMENTO ST W-,13,10,199,10,1,12,708,37.7934,122.408,946,0,6206,10:03:28,10:03:53,10:04:23,1708.0 _ 6206_4681 _  94, 1015_ STOCKTON ST&SACRAMENTO ST W-,00:00:25,00:00:30
15,6970, WILLIAMS AVE&REDDY ST NE-NS,2,0,15,10,1,12,54,37.7297,122.395,950,0,8165,10:03:29,10:03:35,10:03:35,1054.0 _ 8165_4681 _  95, 1015_ WILLIAMS AVE&REDDY ST NE-NS,00:00:06,00:00:00
48,7568, DIVISADERO ST&BAY ST. NW-NS/,0,0,4,10,1,12,30,37.8021,122.443,931,0,5482,10:03:30,10:03:30,10:03:30,1030.0 _ 5482_4681 _  93, 1048_ DIVISADERO ST&BAY ST. NW-NS/,00:00:00,00:00:00
29,4230, FULTON ST&MASONIC AVE SW-NS/,0,1,9,10,1,12,5,37.7759,122.447,946,1,5493,10:03:30,10:03:40,10:04:22,1005.1 _ 5493_4681 _  94, 1029_ FULTON ST&MASONIC AVE SW-NS/,00:00:10,00:00:42
64,6567, 1900 SUNNYDALE AVE NE-FS/SB,0,0,3,10,1,12,9,37.7134,122.421,906,0,8414,10:03:30,10:03:30,10:03:30,1009.0 _ 8414_4681 _  90, 1064_ 1900 SUNNYDALE AVE NE-FS/SB,00:00:00,00:00:00
63,7539, CABRILLO & 7TH AVE. NS-SW,0,0,32,10,1,12,44,37.7752,122.465,912,1,8171,10:03:31,10:03:31,10:03:31,1044.1 _ 8171_4681 _  91, 1063_ CABRILLO & 7TH AVE. NS-SW,00:00:00,00:00:00
89,5903, PAUL AVE&GOULD ST SE-FS/PS,0,0,4,10,1,12,29,37.7228,122.397,853,0,8169,10:03:32,10:03:32,10:03:32,1029.0 _ 8169_4681 _  85, 1089_ PAUL AVE&GOULD ST SE-FS/PS,00:00:00,00:00:00
12,4949, HAIGHT ST&COLE ST SW-NS/BZ,1,1,22,10,1,12,33,37.7695,122.451,950,0,5456,10:03:32,10:03:41,10:04:02,1033.0 _ 5456_4681 _  95, 1012_ HAIGHT ST&COLE ST SW-NS/BZ,00:00:09,00:00:21
40,4357, DE HARO ST&MARIPOSA ST SE-NS,0,0,23,10,1,12,19,37.7635,122.401,940,1,8227,10:03:33,10:03:33,10:03:33,1019.1 _ 8227_4681 _  94, 1040_ DE HARO ST&MARIPOSA ST SE-NS,00:00:00,00:00:00
17,5292, LOUISBURG ST&NIAGRA AVE S-NS,0,0,12,10,1,12,54,37.7203,122.45,955,1,8405,10:03:33,10:03:33,10:03:33,1054.1 _ 8405_4681 _  95, 1017_ LOUISBURG ST&NIAGRA AVE S-NS,00:00:00,00:00:00
19,3612, 5TH ST NORTH&MARKET ST NW-NS,5,3,23,10,1,12,27,37.7841,122.408,945,0,8157,10:03:34,10:04:04,10:05:19,1027.0 _ 8157_4681 _  94, 1019_ 5TH ST NORTH&MARKET ST NW-NS,00:00:30,00:01:15
79,6913, WARREN DR&LOCKSLEY AVE NE-NS,0,0,9,10,1,12,36,37.7583,122.463,925,1,8504,10:03:37,10:03:37,10:03:37,1036.1 _ 8504_4681 _  92, 1079_ WARREN DR&LOCKSLEY AVE NE-NS,00:00:00,00:00:00
28,6729, TURK ST&ROSELYN TER SE-FS/BZ,1,9,20,10,1,12,31,37.7783,122.45,943,1,5481,10:03:40,10:03:50,10:04:11,1031.1 _ 5481_4681 _  94, 1028_ TURK ST&ROSELYN TER SE-FS/BZ,00:00:10,00:00:21
40,3695, BOSWORTH ST&DIAMOND ST NE-NS,8,14,26,10,1,12,44,37.7336,122.434,937,1,8415,10:03:41,10:04:48,10:05:32,1044.1 _ 8415_4681 _  93, 1040_ BOSWORTH ST&DIAMOND ST NE-NS,00:01:07,00:00:44
9,4982, HAYES ST&BRODERICK ST SW-NS/,2,0,23,10,1,12,21,37.7748,122.44,957,1,5513,10:03:41,10:03:48,10:04:08,1021.1 _ 5513_4681 _  95, 1009_ HAYES ST&BRODERICK ST SW-NS/,00:00:07,00:00:20
7,5502, MIDDLE POINT RD&WEST POINT R,0,0,2,10,1,12,44,37.7367,122.378,1001,1,8413,10:03:42,10:03:42,10:03:42,1044.1 _ 8413_4681 _ 100, 1007_ MIDDLE POINT RD&WEST POINT R,00:00:00,00:00:00
22,6232, ROOSEVELT WAY&14TH ST SE-NS/,0,0,5,10,1,12,37,37.7667,122.437,953,0,8506,10:03:42,10:03:42,10:03:42,1037.0 _ 8506_4681 _  95, 1022_ ROOSEVELT WAY&14TH ST SE-NS/,00:00:00,00:00:00
40,3070, BALBOA ST&PARK PRESIDIO BLVD,1,1,20,10,1,12,31,37.7769,122.472,918,0,5500,10:03:42,10:03:50,10:04:05,1031.0 _ 5500_4681 _  91, 1040_ BALBOA ST&PARK PRESIDIO BLVD,00:00:08,00:00:15
5,5879, PALOU AVE&PHELPS ST E-NS/PS,1,1,21,10,1,12,24,37.736,122.395,1000,1,5449,10:03:43,10:03:55,10:04:08,1024.1 _ 5449_4681 _ 100, 1005_ PALOU AVE&PHELPS ST E-NS/PS,00:00:12,00:00:13
21,4156, CORTLAND AVE&MISSION ST E-NS,0,7,13,10,1,12,24,37.741,122.423,949,1,5459,10:03:43,10:03:59,10:03:59,1024.1 _ 5459_4681 _  94, 1021_ CORTLAND AVE&MISSION ST E-NS,00:00:16,00:00:00
18,5620, MISSION ST&SILVER AVE S-NS/B,13,9,73,10,1,12,514,37.7286,122.431,950,1,6208,10:03:43,10:04:21,10:04:48,1514.1 _ 6208_4681 _  95, 1018_ MISSION ST&SILVER AVE S-NS/B,00:00:38,00:00:27
9,3213, 9TH AVE&IRVING ST SW-FS/BZ,2,4,18,10,1,12,44,37.7638,122.466,955,0,8155,10:03:43,10:04:00,10:04:16,1044.0 _ 8155_4681 _  95, 1009_ 9TH AVE&IRVING ST SW-FS/BZ,00:00:17,00:00:16
9,6090, PRESIDIO AVE&CLAY ST NW-NS/P,0,0,12,10,1,12,43,37.789,122.447,952,0,8220,10:03:44,10:03:44,10:03:44,1043.0 _ 8220_4681 _  95, 1009_ PRESIDIO AVE&CLAY ST NW-NS/P,00:00:00,00:00:00
44,6126, POST ST&HYDE ST SE-FS/BZ,0,3,35,10,1,12,2,37.7873,122.416,930,1,8005,10:03:44,10:03:53,10:03:53,1002.1 _ 8005_4681 _  93, 1044_ POST ST&HYDE ST SE-FS/BZ,00:00:09,00:00:00
57,3003, 2ND ST&BRANNAN ST E-NS/BZ,0,0,12,10,1,12,10,37.782,122.392,944,1,8235,10:03:46,10:03:46,10:03:46,1010.1 _ 8235_4681 _  94, 1057_ 2ND ST&BRANNAN ST E-NS/BZ,00:00:00,00:00:00
74,5856, PACIFIC AVE&TAYLOR ST NE-NS/,0,7,23,10,1,12,10,37.7961,122.413,903,1,8203,10:03:46,10:04:00,10:04:00,1010.1 _ 8203_4681 _  90, 1074_ PACIFIC AVE&TAYLOR ST NE-NS/,00:00:14,00:00:00
2,6801, VAN NESS AVE&CHESTNUT ST NW-,1,0,4,10,1,12,49,37.8025,122.425,957,0,7121,10:03:49,10:04:01,10:04:23,1049.0 _ 7121_4681 _  95, 1002_ VAN NESS AVE&CHESTNUT ST NW-,00:00:12,00:00:22
41,4351, DE HARO ST&17TH ST SE-NS/SB,0,0,23,10,1,12,19,37.7647,122.402,940,1,8227,10:03:50,10:03:59,10:03:59,1019.1 _ 8227_4681 _  94, 1041_ DE HARO ST&17TH ST SE-NS/SB,00:00:09,00:00:00
20,3574, 46TH AVE&IRVING ST NW-NS/PS,1,1,7,10,1,12,18,37.7624,122.506,949,0,8406,10:03:53,10:04:04,10:04:19,1018.0 _ 8406_4681 _  94, 1020_ 46TH AVE&IRVING ST NW-NS/PS,00:00:11,00:00:15
11,3240, 11TH ST&HOWARD ST N-FS/BZ,0,0,13,10,1,12,47,37.7733,122.416,943,1,8233,10:03:54,10:03:54,10:03:54,1047.1 _ 8233_4681 _  94, 1011_ 11TH ST&HOWARD ST N-FS/BZ,00:00:00,00:00:00
22,4096, COLE ST&HAIGHT ST SW-FS/SB,1,3,21,10,1,12,43,37.7693,122.451,930,0,8234,10:03:57,10:04:12,10:04:29,1043.0 _ 8234_4681 _  93, 1022_ COLE ST&HAIGHT ST SW-FS/SB,00:00:15,00:00:17
62,6754, UNION ST&FILLMORE ST NW-FS/B,0,2,5,10,1,12,45,37.7971,122.436,929,0,5523,10:03:57,10:04:06,10:04:06,1045.0 _ 5523_4681 _  92, 1062_ UNION ST&FILLMORE ST NW-FS/B,00:00:09,00:00:00
40,6804, VAN NESS AVE&EDDY ST NE-FS/B,2,2,27,10,1,12,49,37.7831,122.421,903,1,7110,10:03:58,10:04:19,10:04:39,1049.1 _ 7110_4681 _  90, 1040_ VAN NESS AVE&EDDY ST NE-FS/B,00:00:21,00:00:20
4,3498, 25TH AVE&EL CAMINO DEL MAR S,0,0,4,10,1,12,29,37.7874,122.485,1001,0,8153,10:03:58,10:04:03,10:04:03,1029.0 _ 8153_4681 _ 100, 1004_ 25TH AVE&EL CAMINO DEL MAR S,00:00:05,00:00:00
3,7312, FOLSOM ST&24TH ST SW-FS/PS,0,0,7,10,1,12,67,37.7523,122.414,1000,0,8180,10:03:58,10:04:04,10:04:04,1067.0 _ 8180_4681 _ 100, 1003_ FOLSOM ST&24TH ST SW-FS/PS,00:00:06,00:00:00
17,5550, MISSION ST&15TH ST SW-FS/BZ,0,1,27,10,1,12,14,37.7663,122.42,932,0,7118,10:04:01,10:04:53,10:05:10,1014.0 _ 7118_4681 _  93, 1017_ MISSION ST&15TH ST SW-FS/BZ,00:00:52,00:00:17
39,6364, SAN BRUNO AVE&SILVER AVE E-M,3,4,77,10,1,12,708,37.7323,122.406,925,1,6230,10:04:01,10:04:27,10:04:57,1708.1 _ 6230_4681 _  92, 1039_ SAN BRUNO AVE&SILVER AVE E-M,00:00:26,00:00:30
23,5569, MISSION ST&29TH ST E-FS/BB,1,5,38,10,1,12,14,37.7443,122.421,939,1,7105,10:04:01,10:04:19,10:04:37,1014.1 _ 7105_4681 _  93, 1023_ MISSION ST&29TH ST E-FS/BB,00:00:18,00:00:18
8,5504, MIDDLE POINT RD&WEST POINT R,0,0,2,10,1,12,44,37.7351,122.377,1001,1,8413,10:04:01,10:04:01,10:04:01,1044.1 _ 8413_4681 _ 100, 1008_ MIDDLE POINT RD&WEST POINT R,00:00:00,00:00:00
13,6597, SUTTER ST&LARKIN ST NW-FS/BZ,0,0,20,10,1,12,2,37.7876,122.418,951,0,8001,10:04:02,10:04:02,10:04:02,1002.0 _ 8001_4681 _  95, 1013_ SUTTER ST&LARKIN ST NW-FS/BZ,00:00:00,00:00:00
49,4418, DIVISADERO ST&FRANCISCO ST N,2,3,3,10,1,12,30,37.8007,122.443,931,0,5482,10:04:02,10:07:03,10:07:03,1030.0 _ 5482_4681 _  93, 1049_ DIVISADERO ST&FRANCISCO ST N,00:03:01,00:00:00
11,3635, ANZA ST&33RD AVE NE-NS/PS,1,1,1,10,1,12,38,37.7721,122.493,1009,1,6211,10:04:03,10:05:27,10:05:55,1038.1 _ 6211_4681 _ 100, 1011_ ANZA ST&33RD AVE NE-NS/PS,00:01:24,00:00:28
19,7191, SAN BRUNO AVE&SOMERSET ST E-,0,0,17,10,1,12,9,37.7134,122.402,1000,1,8159,10:04:03,10:04:03,10:04:03,1009.1 _ 8159_4681 _ 100, 1019_ SAN BRUNO AVE&SOMERSET ST E-,00:00:00,00:00:00
61,3031, BAY ST&MIDWAY ST SE-FS,0,0,4,10,1,12,808,37.8062,122.409,850,1,6204,10:04:04,10:04:04,10:04:04,1808.1 _ 6204_4681 _  85, 1061_ BAY ST&MIDWAY ST SE-FS,00:00:00,00:00:00
16,6184, REDDY ST&THORNTON AVE SE-NS,0,0,15,10,1,12,54,37.7306,122.395,950,0,8165,10:04:05,10:04:05,10:04:05,1054.0 _ 8165_4681 _  95, 1016_ REDDY ST&THORNTON AVE SE-NS,00:00:00,00:00:00
10,6089, PRESIDIO AVE&CALIFORNIA ST N,5,0,17,10,1,12,43,37.7874,122.447,952,0,8220,10:04:05,10:04:27,10:05:49,1043.0 _ 8220_4681 _  95, 1010_ PRESIDIO AVE&CALIFORNIA ST N,00:00:22,00:01:22
45,3933, C. CHAVEZ ST&HARRISON ST NW-,0,0,8,10,1,12,27,37.7484,122.412,915,0,8175,10:04:06,10:04:06,10:04:06,1027.0 _ 8175_4681 _  91, 1045_ C. CHAVEZ ST&HARRISON ST NW-,00:00:00,00:00:00
12,6825, VAN NESS AVE&PACIFIC AVE NW-,0,0,13,10,1,12,47,37.795,122.423,945,0,8205,10:04:07,10:04:07,10:04:07,1047.0 _ 8205_4681 _  94, 1012_ VAN NESS AVE&PACIFIC AVE NW-,00:00:00,00:00:00
80,7308, 7TH AVE&LAWTON ST SW-FS/PS,1,0,10,10,1,12,36,37.7583,122.464,925,1,8504,10:04:08,10:04:15,10:04:15,1036.1 _ 8504_4681 _  92, 1080_ 7TH AVE&LAWTON ST SW-FS/PS,00:00:07,00:00:00
53,4824, KEARNY ST&PACIFIC AVE NE - EOL,0,5,0,10,1,12,908,37.7974,122.406,916,1,6231,10:04:10,10:04:20,10:05:22,1908.1 _ 6231_4681 _  91, 1053_ KEARNY ST&PACIFIC AVE NE - EOL,00:00:10,00:01:02
9,3946, CHESTNUT ST&GOUGH ST SE-FS/B,0,2,17,10,1,12,30,37.8018,122.428,957,1,5524,10:04:13,10:04:18,10:04:18,1030.1 _ 5524_4681 _  95, 1009_ CHESTNUT ST&GOUGH ST SE-FS/B,00:00:05,00:00:00
64,3177, 6TH AVE&BALBOA ST SE-NS/BZ,4,0,36,10,1,12,44,37.7771,122.464,912,1,8171,10:04:15,10:04:29,10:04:44,1044.1 _ 8171_4681 _  91, 1064_ 6TH AVE&BALBOA ST SE-NS/BZ,00:00:14,00:00:15
9,4976, HAWES ST&GILMAN AVE S-NS/SB,5,0,8,10,1,12,29,37.7192,122.39,958,1,8179,10:04:16,10:04:31,10:04:46,1029.1 _ 8179_4681 _  95, 1009_ HAWES ST&GILMAN AVE S-NS/SB,00:00:15,00:00:15
23,3257, 14TH ST&CASTRO ST SW-NS/SB,0,0,5,10,1,12,37,37.7673,122.436,953,0,8506,10:04:17,10:04:52,10:05:22,1037.0 _ 8506_4681 _  95, 1023_ 14TH ST&CASTRO ST SW-NS/SB,00:00:35,00:00:30
32,5549, MISSION ST&15TH ST NE-FS/BZ,0,0,26,10,1,12,49,37.7674,122.42,921,1,7116,10:04:19,10:04:19,10:04:19,1049.1 _ 7116_4681 _  92, 1032_ MISSION ST&15TH ST NE-FS/BZ,00:00:00,00:00:00
58,5643, MARKET ST&4TH ST S-NS/SI,0,3,13,10,1,12,9,37.785,122.406,859,1,8401,10:04:20,10:04:32,10:05:13,1009.1 _ 8401_4681 _  85, 1058_ MARKET ST&4TH ST S-NS/SI,00:00:12,00:00:41
56,7651, 5TH ST&STEVENSON W-NS/CS,2,11,10,10,1,12,45,37.7837,122.407,929,1,5520,10:04:20,10:04:59,10:05:42,1045.1 _ 5520_4681 _  92, 1056_ 5TH ST&STEVENSON W-NS/CS,00:00:39,00:00:43
13,4947, HAIGHT ST&CLAYTON ST SW-NS/B,1,0,23,10,1,12,33,37.7697,122.449,950,0,5456,10:04:21,10:04:29,10:04:47,1033.0 _ 5456_4681 _  95, 1013_ HAIGHT ST&CLAYTON ST SW-NS/B,00:00:08,00:00:18
42,4311, CASTRO ST&16TH ST NE-FS/BZ,0,0,32,10,1,12,24,37.7638,122.435,928,1,5463,10:04:22,10:04:22,10:04:22,1024.1 _ 5463_4681 _  92, 1042_ CASTRO ST&16TH ST NE-FS/BZ,00:00:00,00:00:00
6,5688, MARKET ST&POWELL ST N-NS/BZ,5,0,8,10,1,12,5,37.7848,122.407,953,0,5525,10:04:22,10:05:09,10:05:41,1005.0 _ 5525_4681 _  95, 1006_ MARKET ST&POWELL ST N-NS/BZ,00:00:47,00:00:32
22,4114, COLUMBUS AVE&LOMBARD ST SW-F,3,0,7,10,1,12,30,37.8026,122.414,958,1,5506,10:04:23,10:04:33,10:04:57,1030.1 _ 5506_4681 _  95, 1022_ COLUMBUS AVE&LOMBARD ST SW-F,00:00:10,00:00:24
6,5881, PALOU AVE&QUINT ST E-NS/SB,0,0,21,10,1,12,24,37.7371,122.396,1000,1,5449,10:04:25,10:04:25,10:04:25,1024.1 _ 5449_4681 _ 100, 1006_ PALOU AVE&QUINT ST E-NS/SB,00:00:00,00:00:00
14,5605, MISSION ST&MURRAY ST NE-FS/B,1,0,17,10,1,12,49,37.7339,122.426,948,1,7120,10:04:25,10:04:39,10:04:59,1049.1 _ 7120_4681 _  94, 1014_ MISSION ST&MURRAY ST NE-FS/B,00:00:14,00:00:20
2,4630, FILLMORE ST&NORTH POINT ST S,0,0,0,10,1,12,22,37.8036,122.437,1004,0,5473,10:04:26,10:04:26,10:04:26,1022.0 _ 5473_4681 _ 100, 1002_ FILLMORE ST&NORTH POINT ST S,00:00:00,00:00:00
90,5900, PAUL AVE&CARR ST SE-FS/PS,0,3,1,10,1,12,29,37.7224,122.396,853,0,8169,10:04:27,10:04:39,10:05:39,1029.0 _ 8169_4681 _  85, 1090_ PAUL AVE&CARR ST SE-FS/PS,00:00:12,00:01:00
18,5291, LOUISBURG ST&GENEVA AVE S-NS,0,0,12,10,1,12,54,37.7217,122.449,955,1,8405,10:04:27,10:04:27,10:04:27,1054.1 _ 8405_4681 _  95, 1018_ LOUISBURG ST&GENEVA AVE S-NS,00:00:00,00:00:00
37,6425, STARR KING WAY&GOUGH ST SE-F,2,1,44,10,1,12,38,37.7852,122.424,925,1,6228,10:04:27,10:04:38,10:05:05,1038.1 _ 6228_4681 _  92, 1037_ STARR KING WAY&GOUGH ST SE-F,00:00:11,00:00:27
11,5545, MISSION ST&11TH ST W-FS/BZ,6,1,15,10,1,12,514,37.7741,122.418,950,0,6223,10:04:27,10:05:52,10:06:22,1514.0 _ 6223_4681 _  95, 1011_ MISSION ST&11TH ST W-FS/BZ,00:01:25,00:00:30
14,5695, MARKET ST&TAYLOR ST N-NS/SI,2,0,16,10,1,12,6,37.7824,122.41,954,0,5464,10:04:27,10:04:54,10:05:24,1006.0 _ 5464_4681 _  95, 1014_ MARKET ST&TAYLOR ST N-NS/SI,00:00:27,00:00:30
8,5674, MARKET ST&GRANT AVE W-FS/BZ,0,0,9,10,1,12,31,37.7861,122.405,954,0,5499,10:04:28,10:04:44,10:05:24,1031.0 _ 5499_4681 _  95, 1008_ MARKET ST&GRANT AVE W-FS/BZ,00:00:16,00:00:40
10,4992, HAYES ST&DIVISADERO ST SE-FS,7,2,28,10,1,12,21,37.7751,122.438,957,1,5513,10:04:28,10:04:59,10:04:59,1021.1 _ 5513_4681 _  95, 1010_ HAYES ST&DIVISADERO ST SE-FS,00:00:31,00:00:00
9,6810, VAN NESS AVE&GREENWICH ST SW,0,5,6,10,1,12,47,37.8002,122.424,954,0,8221,10:04:28,10:04:39,10:04:39,1047.0 _ 8221_4681 _  95, 1009_ VAN NESS AVE&GREENWICH ST SW,00:00:11,00:00:00
75,5840, PACIFIC AVE&JONES ST NE-NS/P,1,4,20,10,1,12,10,37.7959,122.415,903,1,8203,10:04:29,10:04:40,10:04:40,1010.1 _ 8203_4681 _  90, 1075_ PACIFIC AVE&JONES ST NE-NS/P,00:00:11,00:00:00
22,4315, CASTRO ST&18TH ST SW-FS/BB,2,0,15,10,1,12,24,37.7607,122.435,940,0,5461,10:04:29,10:04:51,10:04:51,1024.0 _ 5461_4681 _  94, 1022_ CASTRO ST&18TH ST SW-FS/BB,00:00:22,00:00:00
62,7036, OCEAN AVE&GENEVA AVE SW-NS/S,3,2,36,10,1,12,29,37.7231,122.453,911,0,8403,10:04:31,10:04:55,10:05:12,1029.0 _ 8403_4681 _  91, 1062_ OCEAN AVE&GENEVA AVE SW-NS/S,00:00:24,00:00:17
20,6350, 3801 SAN BRUNO AVE SE-MB/SB,0,0,17,10,1,12,9,37.7147,122.401,1000,1,8159,10:04:33,10:04:33,10:04:33,1009.1 _ 8159_4681 _ 100, 1020_ 3801 SAN BRUNO AVE SE-MB/SB,00:00:00,00:00:00
5,3502, 25TH AVE&LAKE ST NW-NS/SB,0,0,4,10,1,12,29,37.7861,122.485,1001,0,8153,10:04:33,10:04:33,10:04:33,1029.0 _ 8153_4681 _ 100, 1005_ 25TH AVE&LAKE ST NW-NS/SB,00:00:00,00:00:00
4,4680, FOLSOM ST&25TH ST NW-NS/PS,0,0,7,10,1,12,67,37.751,122.414,1000,0,8180,10:04:34,10:04:34,10:04:34,1067.0 _ 8180_4681 _ 100, 1004_ FOLSOM ST&25TH ST NW-NS/PS,00:00:00,00:00:00
17,6703, TOPEKA AVE&NEWHALL ST NE-NS,0,0,15,10,1,12,54,37.7318,122.396,950,0,8165,10:04:35,10:04:35,10:04:35,1054.0 _ 8165_4681 _  95, 1017_ TOPEKA AVE&NEWHALL ST NE-NS,00:00:00,00:00:00
11,4288, GEARY BLVD&ARGUELLO BLVD SE-,6,5,38,10,1,12,538,37.7812,122.459,948,1,6225,10:04:35,10:04:53,10:05:09,1538.1 _ 6225_4681 _  94, 1011_ GEARY BLVD&ARGUELLO BLVD SE-,00:00:18,00:00:16
29,6725, TURK ST&MASONIC AVE SW-NS/BZ,1,0,21,10,1,12,31,37.7786,122.447,943,1,5481,10:04:37,10:04:43,10:04:43,1031.1 _ 5481_4681 _  94, 1029_ TURK ST&MASONIC AVE SW-NS/BZ,00:00:06,00:00:00
81,3188, 1697 7TH AVE SW-FS/SB,0,0,10,10,1,12,36,37.7566,122.464,925,1,8504,10:04:37,10:04:37,10:04:37,1036.1 _ 8504_4681 _  92, 1081_ 1697 7TH AVE SW-FS/SB,00:00:00,00:00:00
10,3215, 9TH AVE&JUDAH ST SW-FS/BZ,12,4,26,10,1,12,44,37.7619,122.466,955,0,8155,10:04:37,10:05:15,10:05:15,1044.0 _ 8155_4681 _  95, 1010_ 9TH AVE&JUDAH ST SW-FS/BZ,00:00:38,00:00:00
14,6603, SUTTER ST&POLK ST NW-FS/BZ,1,1,20,10,1,12,2,37.7878,122.42,951,0,8001,10:04:38,10:04:46,10:04:46,1002.0 _ 8001_4681 _  95, 1014_ SUTTER ST&POLK ST NW-FS/BZ,00:00:08,00:00:00
25,4233, FULTON ST&PARKER AVE NW-FS/B,0,5,9,10,1,12,5,37.7749,122.453,916,0,5508,10:04:38,10:04:54,10:04:54,1005.0 _ 5508_4681 _  91, 1025_ FULTON ST&PARKER AVE NW-FS/B,00:00:16,00:00:00
21,3576, 46TH AVE&JUDAH ST NW-NS/PS,6,0,13,10,1,12,18,37.7606,122.506,949,0,8406,10:04:38,10:04:55,10:05:09,1018.0 _ 8406_4681 _  94, 1021_ 46TH AVE&JUDAH ST NW-NS/PS,00:00:17,00:00:14
63,6781, UNION ST&STEINER ST -MI,0,0,5,10,1,12,45,37.7969,122.437,929,0,5523,10:04:39,10:04:39,10:04:39,1045.0 _ 5523_4681 _  92, 1063_ UNION ST&STEINER ST -MI,00:00:00,00:00:00
41,3043, BALBOA ST&17TH AVE NE-NS/PS,0,0,20,10,1,12,31,37.7767,122.476,918,0,5500,10:04:40,10:04:40,10:04:40,1031.0 _ 5500_4681 _  91, 1041_ BALBOA ST&17TH AVE NE-NS/PS,00:00:00,00:00:00
2,5140, JUNIPERO SERRA BLVD&PALMETTO,0,0,29,10,1,12,28,37.7109,122.471,1002,1,8217,10:04:40,10:04:40,10:04:40,1028.1 _ 8217_4681 _ 100, 1002_ JUNIPERO SERRA BLVD&PALMETTO,00:00:00,00:00:00
33,4761, GEARY BLVD&SCOTT ST SE-FS/BZ,1,1,63,10,1,12,38,37.7836,122.437,937,1,6201,10:04:43,10:04:51,10:05:07,1038.1 _ 6201_4681 _  93, 1033_ GEARY BLVD&SCOTT ST SE-FS/BZ,00:00:08,00:00:16
8,6028, POTRERO AVE&17TH ST NE-FS/BZ,0,0,12,10,1,12,33,37.7648,122.407,1005,1,5467,10:04:43,10:04:43,10:04:43,1033.1 _ 5467_4681 _ 100, 1008_ POTRERO AVE&17TH ST NE-FS/BZ,00:00:00,00:00:00
1,4823, KEARNY ST&NORTH POINT ST SE-,5,0,5,10,1,12,708,37.807,122.407,1013,0,6204,10:04:44,10:16:07,10:16:48,1708.0 _ 6204_4681 _ 101, 1001_ KEARNY ST&NORTH POINT ST SE-,00:11:23,00:00:41
62,4823, KEARNY ST&NORTH POINT ST - EOL,0,4,0,10,1,12,808,37.807,122.407,850,1,6204,10:04:44,10:16:07,10:16:48,1808.1 _ 6204_4681 _  85, 1062_ KEARNY ST&NORTH POINT ST - EOL,00:11:23,00:00:41
3,6810, VAN NESS AVE&GREENWICH ST SW,0,0,4,10,1,12,49,37.8006,122.424,957,0,7121,10:04:45,10:04:45,10:04:45,1049.0 _ 7121_4681 _  95, 1003_ VAN NESS AVE&GREENWICH ST SW,00:00:00,00:00:00
21,4760, GEARY BLVD&SCOTT ST NE-NS/BZ,1,2,29,10,1,12,38,37.7838,122.438,937,0,6216,10:04:46,10:05:42,10:05:42,1038.0 _ 6216_4681 _  93, 1021_ GEARY BLVD&SCOTT ST NE-NS/BZ,00:00:56,00:00:00
43,5537, MISSION ST&6TH ST E-FS/BZ,2,3,12,10,1,12,14,37.7812,122.409,903,1,7113,10:04:46,10:04:51,10:05:21,1014.1 _ 7113_4681 _  90, 1043_ MISSION ST&6TH ST E-FS/BZ,00:00:05,00:00:30
41,4495, EDDY ST&VAN NESS AVE SE-FS/B,8,11,26,10,1,12,31,37.7832,122.421,929,1,5517,10:04:46,10:05:21,10:05:21,1031.1 _ 5517_4681 _  92, 1041_ EDDY ST&VAN NESS AVE SE-FS/B,00:00:35,00:00:00
3,4607, FILLMORE ST&BEACH ST SE-NS/B,0,0,0,10,1,12,22,37.8045,122.437,1004,0,5473,10:04:46,10:04:46,10:04:46,1022.0 _ 5473_4681 _ 100, 1003_ FILLMORE ST&BEACH ST SE-NS/B,00:00:00,00:00:00
36,6780, UNION ST&POLK ST SW-NS/BZ,3,0,19,10,1,12,45,37.7987,122.423,953,1,5515,10:04:47,10:05:12,10:05:34,1045.1 _ 5515_4681 _  95, 1036_ UNION ST&POLK ST SW-NS/BZ,00:00:25,00:00:22
7,5683, MARKET ST&MASON ST W-FS/BZ,0,0,3,10,1,12,5,37.7828,122.409,944,0,5491,10:04:47,10:04:47,10:04:47,1005.0 _ 5491_4681 _  94, 1007_ MARKET ST&MASON ST W-FS/BZ,00:00:00,00:00:00
33,3285, 16TH ST&DOLORES ST SW-NS/PS,3,0,22,10,1,12,22,37.7646,122.427,933,0,5453,10:04:48,10:05:09,10:05:39,1022.0 _ 5453_4681 _  93, 1033_ 16TH ST&DOLORES ST SW-NS/PS,00:00:21,00:00:30
1,6575, MCLAREN SCHOOL SW-FS/BZ,1,0,1,10,1,12,9,37.7141,122.424,1012,1,8414,10:04:49,10:11:07,10:11:37,1009.1 _ 8414_4681 _ 101, 1001_ MCLAREN SCHOOL SW-FS/BZ,00:06:18,00:00:30
66,6575, MCLAREN SCHOOL SW-FS/BZ - EOL,0,3,0,10,1,12,9,37.7141,122.424,906,0,8414,10:04:49,10:11:07,10:11:37,1009.0 _ 8414_4681 _  90, 1066_ MCLAREN SCHOOL SW-FS/BZ - EOL,00:06:18,00:00:30
45,6017, POST ST&LEAVENWORTH ST SE-FS,3,0,38,10,1,12,2,37.7876,122.415,930,1,8005,10:04:51,10:05:01,10:05:23,1002.1 _ 8005_4681 _  93, 1045_ POST ST&LEAVENWORTH ST SE-FS,00:00:10,00:00:22
1,7619, BEALEMST & HOWARD ST W-FS/SI,0,0,0,10,1,12,538,37.79,122.393,1015,0,6210,10:04:52,10:06:56,10:06:56,1538.0 _ 6210_4681 _ 101, 1001_ BEALEMST & HOWARD ST W-FS/SI,00:02:04,00:00:00
71,4953, HAIGHT ST&FILLMORE ST SE-FS/,0,0,7,10,1,12,6,37.7723,122.43,941,1,5446,10:04:52,10:04:52,10:04:52,1006.1 _ 5446_4681 _  94, 1071_ HAIGHT ST&FILLMORE ST SE-FS/,00:00:00,00:00:00
24,7619, BEALEMST & HOWARD ST W-F - EOL,0,1,0,10,1,12,538,37.7898,122.394,919,1,6210,10:04:52,10:06:56,10:06:56,1538.1 _ 6210_4681 _  91, 1024_ BEALEMST & HOWARD ST W-F - EOL,00:02:04,00:00:00
43,4310, CASTRO ST&15TH ST SE-NS/PS,0,0,32,10,1,12,24,37.7655,122.435,928,1,5463,10:04:52,10:04:52,10:04:52,1024.1 _ 5463_4681 _  92, 1043_ CASTRO ST&15TH ST SE-NS/PS,00:00:00,00:00:00
46,3931, C. CHAVEZ ST&FOLSOM ST NW-FS,2,0,10,10,1,12,27,37.7484,122.414,915,0,8175,10:04:53,10:05:03,10:05:33,1027.0 _ 8175_4681 _  91, 1046_ C. CHAVEZ ST&FOLSOM ST NW-FS,00:00:10,00:00:30
64,6777, UNION ST&PIERCE ST NE-NS/BZ,0,1,4,10,1,12,45,37.7967,122.439,929,0,5523,10:04:54,10:05:00,10:05:17,1045.0 _ 5523_4681 _  92, 1064_ UNION ST&PIERCE ST NE-NS/BZ,00:00:06,00:00:17
23,4094, COLE ST&FREDERICK ST NW-NS/P,0,0,21,10,1,12,43,37.7672,122.45,930,0,8234,10:04:54,10:04:54,10:04:54,1043.0 _ 8234_4681 _  93, 1023_ COLE ST&FREDERICK ST NW-NS/P,00:00:00,00:00:00
7,5883, PALOU AVE&RANKIN ST E-NS/SB,0,0,21,10,1,12,24,37.7383,122.398,1000,1,5449,10:04:55,10:04:55,10:04:55,1024.1 _ 5449_4681 _ 100, 1007_ PALOU AVE&RANKIN ST E-NS/SB,00:00:00,00:00:00
10,3944, CHESTNUT ST&FRANKLIN ST SE-F,0,0,17,10,1,12,30,37.8022,122.426,957,1,5524,10:04:55,10:04:55,10:04:55,1030.1 _ 5524_4681 _  95, 1010_ CHESTNUT ST&FRANKLIN ST SE-F,00:00:00,00:00:00
13,6521, STOCKTON ST&PACIFIC AVE W-MB,22,3,50,10,1,12,708,37.7971,122.408,955,0,6209,10:04:55,10:06:42,10:06:42,1708.0 _ 6209_4681 _  95, 1013_ STOCKTON ST&PACIFIC AVE W-MB,00:01:47,00:00:00
6,3491, 25TH AVE&CALIFORNIA ST NW-NS,1,0,5,10,1,12,29,37.7841,122.485,1001,0,8153,10:04:56,10:05:06,10:05:36,1029.0 _ 8153_4681 _ 100, 1006_ 25TH AVE&CALIFORNIA ST NW-NS,00:00:10,00:00:30
82,5253, LAGUNA HONDA BLVD&NORIEGA ST,0,0,10,10,1,12,36,37.7545,122.463,925,1,8504,10:04:57,10:04:57,10:04:57,1036.1 _ 8504_4681 _  92, 1082_ LAGUNA HONDA BLVD&NORIEGA ST,00:00:00,00:00:00
5,3128, 3RD ST&HOWARD ST E-NS/BZ,0,3,2,10,1,12,30,37.7848,122.4,956,0,5505,10:04:57,10:05:06,10:05:59,1030.0 _ 5505_4681 _  95, 1005_ 3RD ST&HOWARD ST E-NS/BZ,00:00:09,00:00:53
58,3009, 2ND ST&HARRISON ST N-FS/BZ,0,2,10,10,1,12,10,37.7846,122.395,944,1,8235,10:04:58,10:05:05,10:05:05,1010.1 _ 8235_4681 _  94, 1058_ 2ND ST&HARRISON ST N-FS/BZ,00:00:07,00:00:00
42,4350, DE HARO ST&16TH ST SE-NS/SB,0,0,23,10,1,12,19,37.7661,122.402,940,1,8227,10:04:59,10:04:59,10:04:59,1019.1 _ 8227_4681 _  94, 1042_ DE HARO ST&16TH ST SE-NS/SB,00:00:00,00:00:00
3,5134, JUNIPERO SERRA BLVD&BROTHERH,0,0,29,10,1,12,28,37.7136,122.471,1002,1,8217,10:05:00,10:05:00,10:05:00,1028.1 _ 8217_4681 _ 100, 1003_ JUNIPERO SERRA BLVD&BROTHERH,00:00:00,00:00:00
16,6524, STOCKTON ST&SUTTER ST NW-NS/,0,10,199,10,1,12,708,37.7898,122.407,946,0,6206,10:05:02,10:05:23,10:05:53,1708.0 _ 6206_4681 _  94, 1016_ STOCKTON ST&SUTTER ST NW-NS/,00:00:21,00:00:30
13,6814, VAN NESS AVE&JACKSON ST SW-F,5,0,18,10,1,12,47,37.7937,122.423,945,0,8205,10:05:02,10:05:16,10:05:46,1047.0 _ 8205_4681 _  94, 1013_ VAN NESS AVE&JACKSON ST SW-F,00:00:14,00:00:30
42,3045, BALBOA ST&19TH AVE NE-NS/BZ,1,1,20,10,1,12,31,37.7767,122.478,918,0,5500,10:05:02,10:05:15,10:05:26,1031.0 _ 5500_4681 _  91, 1042_ BALBOA ST&19TH AVE NE-NS/BZ,00:00:13,00:00:11
10,4785, GILMAN AVE&INGALLS ST E-NS/S,5,0,13,10,1,12,29,37.7203,122.392,958,1,8179,10:05:03,10:05:32,10:05:46,1029.1 _ 8179_4681 _  95, 1010_ GILMAN AVE&INGALLS ST E-NS/S,00:00:29,00:00:14
5,4683, FOLSOM ST&26TH ST SW-FS/PS,0,0,7,10,1,12,67,37.7495,122.414,1000,0,8180,10:05:04,10:05:04,10:05:04,1067.0 _ 8180_4681 _ 100, 1005_ FOLSOM ST&26TH ST SW-FS/PS,00:00:00,00:00:00
12,5545, MISSION ST&11TH ST W-FS/BZ,1,2,12,10,1,12,47,37.7742,122.417,943,1,8233,10:05:04,10:05:16,10:05:46,1047.1 _ 8233_4681 _  94, 1012_ MISSION ST&11TH ST W-FS/BZ,00:00:12,00:00:30
10,6832, VAN NESS AVE&UNION ST NW-NS/,2,0,8,10,1,12,47,37.7988,122.424,954,0,8221,10:05:06,10:05:29,10:06:29,1047.0 _ 8221_4681 _  95, 1010_ VAN NESS AVE&UNION ST NW-NS/,00:00:23,00:01:00
11,3957, CHESTNUT ST&VAN NESS AVE SW-,9,2,24,10,1,12,30,37.8023,122.425,957,1,5524,10:05:09,10:05:27,10:05:54,1030.1 _ 5524_4681 _  95, 1011_ CHESTNUT ST&VAN NESS AVE SW-,00:00:18,00:00:27
21,6370, SAN BRUNO AVE&WILDE AVE N-FS,2,0,19,10,1,12,9,37.7169,122.4,1000,1,8159,10:05:10,10:05:19,10:05:30,1009.1 _ 8159_4681 _ 100, 1021_ SAN BRUNO AVE&WILDE AVE N-FS,00:00:09,00:00:11
13,4759, GEARY BLVD&PRESIDIO AVE SW-N,4,0,26,10,1,12,538,37.7823,122.446,936,1,6220,10:05:12,10:05:26,10:05:56,1538.1 _ 6220_4681 _  93, 1013_ GEARY BLVD&PRESIDIO AVE SW-N,00:00:14,00:00:30
44,3124, 3RD ST&FOLSOM ST N-FS/BZ,3,1,85,10,1,12,708,37.7842,122.399,907,1,6221,10:05:13,10:05:53,10:06:25,1708.1 _ 6221_4681 _  90, 1044_ 3RD ST&FOLSOM ST N-FS/BZ,00:00:40,00:00:32
24,5587, MISSION ST&FAIR AVE E-FS/BB,4,1,41,10,1,12,14,37.7459,122.42,939,1,7105,10:05:13,10:05:31,10:05:31,1014.1 _ 7105_4681 _  93, 1024_ MISSION ST&FAIR AVE E-FS/BB,00:00:18,00:00:00
9,5500, MIDDLE POINT RD&INNES AVE NW,0,0,2,10,1,12,44,37.7341,122.38,1001,1,8413,10:05:14,10:05:14,10:05:14,1044.1 _ 8413_4681 _ 100, 1009_ MIDDLE POINT RD&INNES AVE NW,00:00:00,00:00:00
83,4878, LAGUNA HONDA BL&CLARENDON AV,1,0,11,10,1,12,36,37.7522,122.462,925,1,8504,10:05:15,10:05:15,10:05:21,1036.1 _ 8504_4681 _  92, 1083_ LAGUNA HONDA BL&CLARENDON AV,00:00:00,00:00:06
32,5533, MISSION ST&4TH ST E-FS/BZ,0,18,32,10,1,12,514,37.7848,122.404,914,1,6218,10:05:15,10:05:30,10:05:46,1514.1 _ 6218_4681 _  91, 1032_ MISSION ST&4TH ST E-FS/BZ,00:00:15,00:00:16
76,5845, PACIFIC AVE&LEAVENWORTH ST N,2,5,17,10,1,12,10,37.7957,122.417,903,1,8203,10:05:15,10:05:41,10:05:41,1010.1 _ 8203_4681 _  90, 1076_ PACIFIC AVE&LEAVENWORTH ST N,00:00:26,00:00:00
11,5006, HAYES ST&SCOTT ST SW-NS/BZ,0,0,28,10,1,12,21,37.7752,122.437,957,1,5513,10:05:15,10:05:15,10:05:15,1021.1 _ 5513_4681 _  95, 1011_ HAYES ST&SCOTT ST SW-NS/BZ,00:00:00,00:00:00
15,6613, SUTTER ST&VAN NESS AVE NE-NS,2,2,20,10,1,12,2,37.7877,122.421,951,0,8001,10:05:19,10:05:40,10:06:06,1002.0 _ 8001_4681 _  95, 1015_ SUTTER ST&VAN NESS AVE NE-NS,00:00:21,00:00:26
43,6189, RHODE ISLAND ST&16TH ST NE-F,0,0,23,10,1,12,19,37.7667,122.402,940,1,8227,10:05:19,10:05:19,10:05:19,1019.1 _ 8227_4681 _  94, 1043_ RHODE ISLAND ST&16TH ST NE-F,00:00:00,00:00:00
24,4092, COLE ST&CARL ST SW-FS/BZ,0,1,20,10,1,12,43,37.7657,122.45,930,0,8234,10:05:21,10:05:31,10:05:31,1043.0 _ 8234_4681 _  93, 1024_ COLE ST&CARL ST SW-FS/BZ,00:00:10,00:00:00
23,4316, CASTRO ST&19TH ST NW-NS/PS,0,0,15,10,1,12,24,37.7595,122.435,940,0,5461,10:05:21,10:05:21,10:05:21,1024.0 _ 5461_4681 _  94, 1023_ CASTRO ST&19TH ST NW-NS/PS,00:00:00,00:00:00
6,4684, FOLSOM ST&CESAR CHAVEZ ST NW,0,0,7,10,1,12,67,37.7486,122.414,1000,0,8180,10:05:22,10:05:22,10:05:22,1067.0 _ 8180_4681 _ 100, 1006_ FOLSOM ST&CESAR CHAVEZ ST NW,00:00:00,00:00:00
7,5532, MISSION ST&3RD ST W-FS/BZ,4,1,9,10,1,12,514,37.7851,122.402,959,0,6402,10:05:22,10:05:43,10:05:43,1514.0 _ 6402_4681 _  95, 1007_ MISSION ST&3RD ST W-FS/BZ,00:00:21,00:00:00
33,5547, MISSION ST&14TH ST NE-FS/BZ,0,0,26,10,1,12,49,37.7689,122.42,921,1,7116,10:05:23,10:05:23,10:05:23,1049.1 _ 7116_4681 _  92, 1033_ MISSION ST&14TH ST NE-FS/BZ,00:00:00,00:00:00
18,6702, TOPEKA AVE&BRIDGE VIEW DR E-,0,0,15,10,1,12,54,37.7327,122.398,950,0,8165,10:05:24,10:05:24,10:05:24,1054.0 _ 8165_4681 _  95, 1018_ TOPEKA AVE&BRIDGE VIEW DR E-,00:00:00,00:00:00
22,3578, 46TH AVE&KIRKHAM ST NW-NS/PS,0,0,13,10,1,12,18,37.7589,122.506,949,0,8406,10:05:25,10:05:25,10:05:25,1018.0 _ 8406_4681 _  94, 1022_ 46TH AVE&KIRKHAM ST NW-NS/PS,00:00:00,00:00:00
30,5388, MCALLISTER ST&CENTRAL AVE SE,1,0,10,10,1,12,5,37.777,122.445,946,1,5493,10:05:25,10:05:33,10:05:53,1005.1 _ 5493_4681 _  94, 1030_ MCALLISTER ST&CENTRAL AVE SE,00:00:08,00:00:20
4,6832, VAN NESS AVE&UNION ST NW-NS/,1,1,4,10,1,12,49,37.7988,122.424,957,0,7121,10:05:25,10:06:06,10:06:36,1049.0 _ 7121_4681 _  95, 1004_ VAN NESS AVE&UNION ST NW-NS/,00:00:41,00:00:30
8,5867, PALOU AVE&INDUSTRIAL ST E-NS,0,0,21,10,1,12,24,37.7396,122.401,1000,1,5449,10:05:25,10:05:25,10:05:25,1024.1 _ 5449_4681 _ 100, 1008_ PALOU AVE&INDUSTRIAL ST E-NS,00:00:00,00:00:00
12,3245, 11TH ST&MARKET ST S-FS/BZ,10,3,38,10,1,12,9,37.7755,122.419,942,0,8167,10:05:26,10:05:46,10:05:59,1009.0 _ 8167_4681 _  94, 1012_ 11TH ST&MARKET ST S-FS/BZ,00:00:20,00:00:13
22,3540, 30TH ST&MISSION ST NW-FS/BZ,4,4,13,10,1,12,24,37.7424,122.422,949,1,5459,10:05:26,10:05:56,10:05:56,1024.1 _ 5459_4681 _  94, 1022_ 30TH ST&MISSION ST NW-FS/BZ,00:00:30,00:00:00
23,4105, COLUMBUS AVE&FILBERT ST W-NS,0,0,7,10,1,12,30,37.8013,122.412,958,1,5506,10:05:28,10:05:28,10:05:28,1030.1 _ 5506_4681 _  95, 1023_ COLUMBUS AVE&FILBERT ST W-NS,00:00:00,00:00:00
18,5552, MISSION ST&16TH ST SW-FS/BB,8,9,26,10,1,12,14,37.7647,122.42,932,0,7118,10:05:28,10:05:53,10:06:11,1014.0 _ 7118_4681 _  93, 1018_ MISSION ST&16TH ST SW-FS/BB,00:00:25,00:00:18
44,4307, CASTRO ST&14TH ST NE-FS/BZ,0,1,31,10,1,12,24,37.7676,122.436,928,1,5463,10:05:31,10:05:37,10:05:37,1024.1 _ 5463_4681 _  92, 1044_ CASTRO ST&14TH ST NE-FS/BZ,00:00:06,00:00:00
15,5613, MISSION ST&RICHLAND AVE SE-N,3,0,20,10,1,12,49,37.7358,122.424,948,1,7120,10:05:31,10:05:49,10:06:14,1049.1 _ 7120_4681 _  94, 1015_ MISSION ST&RICHLAND AVE SE-N,00:00:18,00:00:25
41,6823, VAN NESS AVE&OFARRELL ST NE-,1,4,24,10,1,12,49,37.785,122.421,903,1,7110,10:05:33,10:05:45,10:05:45,1049.1 _ 7110_4681 _  90, 1041_ VAN NESS AVE&OFARRELL ST NE-,00:00:12,00:00:00
26,4236, FULTON ST&STANYAN ST NW-FS/B,5,1,13,10,1,12,5,37.7747,122.455,916,0,5508,10:05:33,10:05:46,10:05:59,1005.0 _ 5508_4681 _  91, 1026_ FULTON ST&STANYAN ST NW-FS/B,00:00:13,00:00:13
65,3184, 6TH AVE&GEARY BLVD SE-NS/BZ,1,21,16,10,1,12,44,37.7808,122.464,912,1,8171,10:05:33,10:06:06,10:06:36,1044.1 _ 8171_4681 _  91, 1065_ 6TH AVE&GEARY BLVD SE-NS/BZ,00:00:33,00:00:30
20,6827, VAN NESS AVE&POST ST E-MB/BB,5,1,25,10,1,12,47,37.786,122.422,953,1,8015,10:05:34,10:05:51,10:06:33,1047.1 _ 8015_4681 _  95, 1020_ VAN NESS AVE&POST ST E-MB/BB,00:00:17,00:00:42
30,6717, TURK ST&CENTRAL AVE SW-NS/SB,0,0,21,10,1,12,31,37.7788,122.445,943,1,5481,10:05:34,10:05:34,10:05:34,1031.1 _ 5481_4681 _  94, 1030_ TURK ST&CENTRAL AVE SW-NS/SB,00:00:00,00:00:00
72,4942, HAIGHT ST&BUCHANAN ST SW-NS/,0,0,7,10,1,12,6,37.7726,122.427,941,1,5446,10:05:35,10:05:35,10:05:35,1006.1 _ 5446_4681 _  94, 1072_ HAIGHT ST&BUCHANAN ST SW-NS/,00:00:00,00:00:00
20,3173, 5TH ST&MISSION ST W-NS/BZ,1,3,21,10,1,12,27,37.7831,122.407,945,0,8157,10:05:35,10:05:44,10:06:14,1027.0 _ 8157_4681 _  94, 1020_ 5TH ST&MISSION ST W-NS/BZ,00:00:09,00:00:30
10,5107, INGALLS ST&HARBOR RD NW-NS/P,0,0,2,10,1,12,44,37.7333,122.38,1001,1,8413,10:05:36,10:05:36,10:05:36,1044.1 _ 8413_4681 _ 100, 1010_ INGALLS ST&HARBOR RD NW-NS/P,00:00:00,00:00:00
42,5975, PLYMOUTH AVE&OCEAN AVE SW-FS,2,0,22,10,1,12,29,37.7236,122.456,928,1,8158,10:05:37,10:05:44,10:05:58,1029.1 _ 8158_4681 _  92, 1042_ PLYMOUTH AVE&OCEAN AVE SW-FS,00:00:07,00:00:14
24,3259, 14TH ST&NOE ST SW-NS/PS,0,0,5,10,1,12,37,37.7675,122.434,953,0,8506,10:05:38,10:05:38,10:05:38,1037.0 _ 8506_4681 _  95, 1024_ 14TH ST&NOE ST SW-NS/PS,00:00:00,00:00:00
59,5640, MARKET ST&3RD ST S-NS/SI,0,6,7,10,1,12,9,37.7873,122.404,859,1,8401,10:05:39,10:05:52,10:06:22,1009.1 _ 8401_4681 _  85, 1059_ MARKET ST&3RD ST S-NS/SI,00:00:13,00:00:30
43,3047, BALBOA ST&21ST AVE NE-NS/PS,0,3,17,10,1,12,31,37.7766,122.48,918,0,5500,10:05:40,10:06:03,10:06:17,1031.0 _ 5500_4681 _  91, 1043_ BALBOA ST&21ST AVE NE-NS/PS,00:00:23,00:00:14
44,6188, RHODE ISLAND ST&15TH ST SE-N,1,0,24,10,1,12,19,37.7673,122.403,940,1,8227,10:05:42,10:05:48,10:05:48,1019.1 _ 8227_4681 _  94, 1044_ RHODE ISLAND ST&15TH ST SE-N,00:00:06,00:00:00
4,4625, FILLMORE ST&JEFFERSON ST SW-,0,0,0,10,1,12,22,37.8054,122.437,1004,0,5473,10:05:43,10:05:43,10:05:43,1022.0 _ 5473_4681 _ 100, 1004_ FILLMORE ST&JEFFERSON ST SW-,00:00:00,00:00:00
9,5096, INDUSTRIAL ST&REVERE AVE NE-,0,0,21,10,1,12,24,37.7391,122.403,1000,1,5449,10:05:43,10:05:43,10:05:43,1024.1 _ 5449_4681 _ 100, 1009_ INDUSTRIAL ST&REVERE AVE NE-,00:00:00,00:00:00
14,3665, ASHBURY ST&WALLER ST NW-NS/P,3,0,26,10,1,12,33,37.7692,122.447,950,0,5456,10:05:43,10:05:59,10:06:13,1033.0 _ 5456_4681 _  95, 1014_ ASHBURY ST&WALLER ST NW-NS/P,00:00:16,00:00:14
9,3295, 16TH ST&POTRERO AVE NW-FS/BZ,0,4,8,10,1,12,33,37.7659,122.408,1005,1,5467,10:05:44,10:06:00,10:06:00,1033.1 _ 5467_4681 _ 100, 1009_ 16TH ST&POTRERO AVE NW-FS/BZ,00:00:16,00:00:00
15,5656, MARKET ST&7TH ST NORTH N-NS/,2,3,15,10,1,12,6,37.7808,122.412,954,0,5464,10:05:45,10:06:08,10:06:23,1006.0 _ 5464_4681 _  95, 1015_ MARKET ST&7TH ST NORTH N-NS/,00:00:23,00:00:15
22,7074, CHURCH ST&DUBOCE AVE SE-NS/P,3,2,34,10,1,12,22,37.7692,122.429,942,1,5471,10:05:45,10:05:59,10:06:29,1022.1 _ 5471_4681 _  94, 1022_ CHURCH ST&DUBOCE AVE SE-NS/P,00:00:14,00:00:30
11,3216, 9TH AVE&KIRKHAM ST NW-NS/BZ,0,0,26,10,1,12,44,37.7608,122.466,955,0,8155,10:05:45,10:05:45,10:05:45,1044.0 _ 8155_4681 _  95, 1011_ 9TH AVE&KIRKHAM ST NW-NS/BZ,00:00:00,00:00:00
19,4805, BALBOA PARK BART STATION SW-,3,6,9,10,1,12,54,37.7209,122.447,955,1,8405,10:05:45,10:06:05,10:06:35,1054.1 _ 8405_4681 _  95, 1019_ BALBOA PARK BART STATION SW-,00:00:20,00:00:30
63,4882, GENEVA AVE&HOWTH ST S-FS/PS,0,0,36,10,1,12,29,37.722,122.45,911,0,8403,10:05:48,10:05:52,10:06:14,1029.0 _ 8403_4681 _  91, 1063_ GENEVA AVE&HOWTH ST S-FS/PS,00:00:04,00:00:22
22,6368, SAN BRUNO AVE&WARD ST E-FS/B,0,0,19,10,1,12,9,37.7191,122.4,1000,1,8159,10:05:49,10:05:49,10:05:49,1009.1 _ 8159_4681 _ 100, 1022_ SAN BRUNO AVE&WARD ST E-FS/B,00:00:00,00:00:00
42,4490, EDDY ST&POLK ST SE-FS/BZ,0,2,24,10,1,12,31,37.7832,122.419,929,1,5517,10:05:49,10:06:05,10:06:05,1031.1 _ 5517_4681 _  92, 1042_ EDDY ST&POLK ST SE-FS/BZ,00:00:16,00:00:00
65,6752, UNION ST&DIVISADERO ST NE-NS,0,2,2,10,1,12,45,37.7963,122.442,929,0,5523,10:05:49,10:06:02,10:06:19,1045.0 _ 5523_4681 _  92, 1065_ UNION ST&DIVISADERO ST NE-NS,00:00:13,00:00:17
7,4686, FOLSOM ST&BESSIE ST NW-NS/PS,0,0,7,10,1,12,67,37.7465,122.414,1000,0,8180,10:05:50,10:05:50,10:05:50,1067.0 _ 8180_4681 _ 100, 1007_ FOLSOM ST&BESSIE ST NW-NS/PS,00:00:00,00:00:00
12,5004, HAYES ST&PIERCE ST SE-FS/BZ,0,3,25,10,1,12,21,37.7754,122.434,957,1,5513,10:05:50,10:05:56,10:05:56,1021.1 _ 5513_4681 _  95, 1012_ HAYES ST&PIERCE ST SE-FS/BZ,00:00:06,00:00:00
44,5535, MISSION ST&5TH ST S-NS/BZ,3,3,12,10,1,12,14,37.7826,122.407,903,1,7113,10:05:51,10:06:20,10:06:40,1014.1 _ 7113_4681 _  90, 1044_ MISSION ST&5TH ST S-NS/BZ,00:00:29,00:00:20
62,7549, 2ND ST & STEVENSON ST E-MB/B,0,2,18,10,1,12,12,37.7886,122.4,932,1,8215,10:05:54,10:06:07,10:06:49,1012.1 _ 8215_4681 _  93, 1062_ 2ND ST & STEVENSON ST E-MB/B,00:00:13,00:00:42
7,3495, 25TH AVE&CLEMENT ST NW-NS/BZ,2,1,6,10,1,12,29,37.7822,122.485,1001,0,8153,10:05:54,10:06:06,10:06:18,1029.0 _ 8153_4681 _ 100, 1007_ 25TH AVE&CLEMENT ST NW-NS/BZ,00:00:12,00:00:12
23,3580, 46TH AVE&LAWTON ST NW-NS/PS,0,0,13,10,1,12,18,37.7568,122.506,949,0,8406,10:05:55,10:05:59,10:06:13,1018.0 _ 8406_4681 _  94, 1023_ 46TH AVE&LAWTON ST NW-NS/PS,00:00:04,00:00:14
24,4120, COLUMBUS AVE&UNION ST NW-NS/,4,0,11,10,1,12,30,37.8005,122.411,958,1,5506,10:05:55,10:06:27,10:07:00,1030.1 _ 5506_4681 _  95, 1024_ COLUMBUS AVE&UNION ST NW-NS/,00:00:32,00:00:33
84,5247, FOREST HILL STATION NW-N - EOL,0,11,0,10,1,12,36,37.7482,122.459,925,1,8504,10:05:56,10:15:48,10:16:08,1036.1 _ 8504_4681 _  92, 1084_ FOREST HILL STATION NW-N - EOL,00:09:52,00:00:20
25,5889, PARNASSUS AVE&COLE ST NW-FS/,1,1,20,10,1,12,43,37.7649,122.45,930,0,8234,10:05:56,10:06:06,10:06:06,1043.0 _ 8234_4681 _  93, 1025_ PARNASSUS AVE&COLE ST NW-FS/,00:00:10,00:00:00
24,4318, CASTRO ST&20TH ST NW-NS/PS,0,1,14,10,1,12,24,37.7579,122.435,940,0,5461,10:05:56,10:06:14,10:06:32,1024.0 _ 5461_4681 _  94, 1024_ CASTRO ST&20TH ST NW-NS/PS,00:00:18,00:00:18
1,5247, FOREST HILL STATION NW-NS/SB,4,0,4,10,1,12,36,37.7482,122.459,1015,0,8504,10:05:56,10:15:48,10:16:08,1036.0 _ 8504_4681 _ 101, 1001_ FOREST HILL STATION NW-NS/SB,00:09:52,00:00:20
37,6767, UNION ST&LARKIN ST SE-FS/BZ,2,2,19,10,1,12,45,37.799,122.421,953,1,5515,10:05:56,10:06:11,10:06:11,1045.1 _ 5515_4681 _  95, 1037_ UNION ST&LARKIN ST SE-FS/BZ,00:00:15,00:00:00
46,6127, POST ST&JONES ST SE-FS/BZ,0,1,37,10,1,12,2,37.7878,122.413,930,1,8005,10:05:57,10:06:03,10:06:03,1002.1 _ 8005_4681 _  93, 1046_ POST ST&JONES ST SE-FS/BZ,00:00:06,00:00:00
19,3721, BRIDGE VIEW DR&SCOTIA AVE N-,0,0,15,10,1,12,54,37.7318,122.4,950,0,8165,10:05:59,10:05:59,10:05:59,1054.0 _ 8165_4681 _  95, 1019_ BRIDGE VIEW DR&SCOTIA AVE N-,00:00:00,00:00:00
11,5044, HUDSON AVE&INGALLS ST NW-FS/,3,0,5,10,1,12,44,37.7324,122.38,1001,1,8413,10:06:00,10:06:20,10:06:38,1044.1 _ 8413_4681 _ 100, 1011_ HUDSON AVE&INGALLS ST NW-FS/,00:00:20,00:00:18
4,3362, 19TH AVE&JUNIPERO SERRA BLVD,2,0,31,10,1,12,28,37.7181,122.473,1002,1,8217,10:06:00,10:06:12,10:06:23,1028.1 _ 8217_4681 _ 100, 1004_ 19TH AVE&JUNIPERO SERRA BLVD,00:00:12,00:00:11
42,3698, BOSWORTH ST&LIPPARD AVE NE-N,0,0,26,10,1,12,44,37.7339,122.436,937,1,8415,10:06:02,10:06:02,10:06:02,1044.1 _ 8415_4681 _  93, 1042_ BOSWORTH ST&LIPPARD AVE NE-N,00:00:00,00:00:00
48,3238, 11TH ST&HARRISON ST N-FS/BZ,0,1,19,10,1,12,509,37.7709,122.413,944,1,8168,10:06:03,10:06:19,10:06:32,1509.1 _ 8168_4681 _  94, 1048_ 11TH ST&HARRISON ST N-FS/BZ,00:00:16,00:00:13
11,4786, GILMAN AVE&JENNINGS ST E-NS/,1,0,14,10,1,12,29,37.7214,122.394,958,1,8179,10:06:03,10:06:11,10:06:25,1029.1 _ 8179_4681 _  95, 1011_ GILMAN AVE&JENNINGS ST E-NS/,00:00:08,00:00:14
8,4699, FOLSOM ST&STONEMAN ST NW-NS/,0,0,7,10,1,12,67,37.7452,122.414,1000,0,8180,10:06:04,10:06:04,10:06:04,1067.0 _ 8180_4681 _ 100, 1008_ FOLSOM ST&STONEMAN ST NW-NS/,00:00:00,00:00:00
73,5259, LAGUNA ST&HAIGHT ST NE-FS/BZ,0,0,7,10,1,12,6,37.7728,122.426,941,1,5446,10:06:05,10:06:05,10:06:05,1006.1 _ 5446_4681 _  94, 1073_ LAGUNA ST&HAIGHT ST NE-FS/BZ,00:00:00,00:00:00
45,4331, CASTRO ST&DUBOCE AVE SE-NS/B,0,1,30,10,1,12,24,37.7689,122.436,928,1,5463,10:06:08,10:06:18,10:07:00,1024.1 _ 5463_4681 _  92, 1045_ CASTRO ST&DUBOCE AVE SE-NS/B,00:00:10,00:00:42
25,5565, MISSION ST&24TH ST NE-FS/BZ,5,16,65,10,1,12,514,37.7526,122.418,941,1,6203,10:06:08,10:06:26,10:06:45,1514.1 _ 6203_4681 _  94, 1025_ MISSION ST&24TH ST NE-FS/BZ,00:00:18,00:00:19
34,4296, GEARY BLVD&FILLMORE ST S-MB/,13,15,61,10,1,12,38,37.7841,122.433,937,1,6201,10:06:09,10:06:45,10:07:06,1038.1 _ 6201_4681 _  93, 1034_ GEARY BLVD&FILLMORE ST S-MB/,00:00:36,00:00:21
34,3287, 16TH ST&GUERRERO ST SW-NS/BZ,0,0,22,10,1,12,22,37.7648,122.425,933,0,5453,10:06:09,10:06:09,10:06:09,1022.0 _ 5453_4681 _  93, 1034_ 16TH ST&GUERRERO ST SW-NS/BZ,00:00:00,00:00:00
31,6723, TURK ST&LYON ST SW-NS/SB,0,0,21,10,1,12,31,37.779,122.444,943,1,5481,10:06:11,10:06:11,10:06:11,1031.1 _ 5481_4681 _  94, 1031_ TURK ST&LYON ST SW-NS/SB,00:00:00,00:00:00
77,5838, PACIFIC AVE&HYDE ST NE-NS,0,2,15,10,1,12,10,37.7954,122.418,903,1,8203,10:06:11,10:06:18,10:06:18,1010.1 _ 8203_4681 _  90, 1077_ PACIFIC AVE&HYDE ST NE-NS,00:00:07,00:00:00
23,5613, MISSION ST&RICHLAND AVE SE-N,3,0,76,10,1,12,514,37.7359,122.424,950,1,6208,10:06:11,10:06:49,10:07:06,1514.1 _ 6208_4681 _  95, 1023_ MISSION ST&RICHLAND AVE SE-N,00:00:38,00:00:17
42,6827, VAN NESS AVE&POST ST E-MB/BB,0,2,22,10,1,12,49,37.7859,122.421,903,1,7110,10:06:11,10:06:23,10:06:52,1049.1 _ 7110_4681 _  90, 1042_ VAN NESS AVE&POST ST E-MB/BB,00:00:12,00:00:29
22,4293, GEARY BLVD&DIVISADERO ST NE-,6,6,29,10,1,12,38,37.7835,122.439,937,0,6216,10:06:12,10:06:41,10:07:11,1038.0 _ 6216_4681 _  93, 1022_ GEARY BLVD&DIVISADERO ST NE-,00:00:29,00:00:30
47,3936, C. CHAVEZ ST&SOUTH VAN NESS,0,0,10,10,1,12,27,37.7483,122.416,915,0,8175,10:06:13,10:06:13,10:06:13,1027.0 _ 8175_4681 _  91, 1047_ C. CHAVEZ ST&SOUTH VAN NESS,00:00:00,00:00:00
43,5961, PLYMOUTH AVE&HOLLOWAY AVE NW,0,0,22,10,1,12,29,37.722,122.456,928,1,8158,10:06:13,10:06:13,10:06:13,1029.1 _ 8158_4681 _  92, 1043_ PLYMOUTH AVE&HOLLOWAY AVE NW,00:00:00,00:00:00
5,4606, FILLMORE ST&BEACH ST NW-NS/B,0,0,0,10,1,12,22,37.804,122.437,1004,0,5473,10:06:14,10:06:14,10:06:14,1022.0 _ 5473_4681 _ 100, 1005_ FILLMORE ST&BEACH ST NW-NS/B,00:00:00,00:00:00
25,3261, 14TH ST&SANCHEZ ST SW-NS/PS,0,0,5,10,1,12,37,37.7676,122.431,953,0,8506,10:06:17,10:06:17,10:06:17,1037.0 _ 8506_4681 _  95, 1025_ 14TH ST&SANCHEZ ST SW-NS/PS,00:00:00,00:00:00
45,6202, RHODE ISLAND ST&ALAMEDA ST S,0,0,24,10,1,12,19,37.7685,122.403,940,1,8227,10:06:18,10:06:18,10:06:18,1019.1 _ 8227_4681 _  94, 1045_ RHODE ISLAND ST&ALAMEDA ST S,00:00:00,00:00:00
23,6360, SAN BRUNO AVE&MANSELL ST E-N,0,0,19,10,1,12,9,37.7215,122.401,1000,1,8159,10:06:18,10:06:18,10:06:18,1009.1 _ 8159_4681 _ 100, 1023_ SAN BRUNO AVE&MANSELL ST E-N,00:00:00,00:00:00
38,5818, OFARRELL ST&VAN NESS AVE SW-,1,10,35,10,1,12,38,37.7848,122.422,925,1,6228,10:06:18,10:07:20,10:07:38,1038.1 _ 6228_4681 _  92, 1038_ OFARRELL ST&VAN NESS AVE SW-,00:01:02,00:00:18
9,6211, RIPLEY ST&FOLSOM ST SE-FS/SB,0,0,7,10,1,12,67,37.7448,122.413,1000,0,8180,10:06:18,10:06:18,10:06:18,1067.0 _ 8180_4681 _ 100, 1009_ RIPLEY ST&FOLSOM ST SE-FS/SB,00:00:00,00:00:00
13,3243, 11TH ST&MISSION ST S-FS/BZ,8,3,43,10,1,12,9,37.7742,122.417,942,0,8167,10:06:19,10:06:55,10:07:15,1009.0 _ 8167_4681 _  94, 1013_ 11TH ST&MISSION ST S-FS/BZ,00:00:36,00:00:20
31,5385, MCALLISTER ST&BAKER ST SW-NS,1,0,11,10,1,12,5,37.7773,122.442,946,1,5493,10:06:20,10:06:27,10:06:27,1005.1 _ 5493_4681 _  94, 1031_ MCALLISTER ST&BAKER ST SW-NS,00:00:07,00:00:00
12,3218, 9TH AVE&LAWTON ST NW-NS/RC,4,3,27,10,1,12,44,37.7586,122.466,955,0,8155,10:06:20,10:06:53,10:07:21,1044.0 _ 8155_4681 _  95, 1012_ 9TH AVE&LAWTON ST NW-NS/RC,00:00:33,00:00:28
51,4820, KEARNY ST&CLAY ST NE-FS/BZ,0,14,39,10,1,12,708,37.7943,122.405,858,1,6214,10:06:20,10:06:43,10:07:01,1708.1 _ 6214_4681 _  85, 1051_ KEARNY ST&CLAY ST NE-FS/BZ,00:00:23,00:00:18
91,4648, FITZGERALD AVE&KEITH ST  - EOL,0,1,0,10,1,12,29,37.723,122.395,853,0,8169,10:06:21,10:06:53,10:07:08,1029.0 _ 8169_4681 _  85, 1091_ FITZGERALD AVE&KEITH ST  - EOL,00:00:32,00:00:15
33,5531, MISSION ST&3RD ST E-FS/BZ,0,23,9,10,1,12,514,37.7865,122.402,914,1,6218,10:06:22,10:06:43,10:07:05,1514.1 _ 6218_4681 _  91, 1033_ MISSION ST&3RD ST E-FS/BZ,00:00:21,00:00:22
23,3537, 30TH ST&DOLORES ST NE-NS/PS,2,0,15,10,1,12,24,37.7423,122.424,949,1,5459,10:06:22,10:06:33,10:06:46,1024.1 _ 5459_4681 _  94, 1023_ 30TH ST&DOLORES ST NE-NS/PS,00:00:11,00:00:13
32,6711, TURK ST&BAKER ST SW-NS/PS,0,0,21,10,1,12,31,37.7792,122.442,943,1,5481,10:06:23,10:06:30,10:06:30,1031.1 _ 5481_4681 _  94, 1032_ TURK ST&BAKER ST SW-NS/PS,00:00:07,00:00:00
12,4763, GEARY BLVD&SPRUCE ST SW-NS/B,2,2,38,10,1,12,538,37.7816,122.453,948,1,6225,10:06:23,10:07:04,10:07:59,1538.1 _ 6225_4681 _  94, 1012_ GEARY BLVD&SPRUCE ST SW-NS/B,00:00:41,00:00:55
34,5546, MISSION ST&13TH ST NE-FS/BZ,1,1,26,10,1,12,49,37.7704,122.42,921,1,7116,10:06:25,10:06:48,10:07:07,1049.1 _ 7116_4681 _  92, 1034_ MISSION ST&13TH ST NE-FS/BZ,00:00:23,00:00:19
21,4969, HARRISON ST&5TH ST W-FS/BZ,0,0,0,10,1,12,708,37.7787,122.402,1004,0,6207,10:06:25,10:06:25,10:06:25,1708.0 _ 6207_4681 _ 100, 1021_ HARRISON ST&5TH ST W-FS/BZ,00:00:00,00:00:00
20,6844, VESTA ST&PHELPS ST NW-NS,2,1,16,10,1,12,54,37.7304,122.4,950,0,8165,10:06:28,10:06:44,10:06:44,1054.0 _ 8165_4681 _  95, 1020_ VESTA ST&PHELPS ST NW-NS,00:00:16,00:00:00
14,6828, VAN NESS AVE&SACRAMENTO ST N,7,5,20,10,1,12,47,37.7913,122.423,945,0,8205,10:06:28,10:07:20,10:07:46,1047.0 _ 8205_4681 _  94, 1014_ VAN NESS AVE&SACRAMENTO ST N,00:00:52,00:00:26
24,3584, 46TH AVE&MORAGA ST NW-NS/PS,0,0,13,10,1,12,18,37.7552,122.506,949,0,8406,10:06:29,10:06:29,10:06:29,1018.0 _ 8406_4681 _  94, 1024_ 46TH AVE&MORAGA ST NW-NS/PS,00:00:00,00:00:00
26,5893, PARNASSUS AVE&SHRADER ST NE-,0,0,20,10,1,12,43,37.7647,122.451,930,0,8234,10:06:30,10:06:30,10:06:30,1043.0 _ 8234_4681 _  93, 1026_ PARNASSUS AVE&SHRADER ST NE-,00:00:00,00:00:00
